"id","name","type","length","startLat","startLng","startStakeNum","endStakeNum","endLat","endLng","tollRoads","endTime","provinceType","operation","isLoopCity","enTollStation","exTollStation","entrystation","exitstation","tollGrantry","ownerid","roadid","roadidname","roadtype","feeKtype","feeHtype","status","Gantrys","inoutprovince","HEX","NOTE","SORT","DIRECTION","BEGINTIME","VERTICALSECTIONTYPE","tollstaion"
"G000561001000110","禹门口省界-工业园匝道",2,1690,"35.597440","110.573792",839,840.5,"35.590876","110.559901","G000561","2025-10-27",1,1,0,"G0005610010010","G0005610010110",400305,400306,"G000561001000110",40,1,"阎禹高速",1,1,1,1,"G000561001000110010","2","270001","12",1,1,"2005-10-28",1,"G0005610010010"
"G000561001000120","工业园匝道-禹门口省界",2,1690,"35.590934","110.560509",840.5,839,"35.593749","110.565724","G000561","2025-10-27",1,1,0,"G0005610010110","G0005610010010",400306,400305,"G000561001000120",40,1,"阎禹高速",1,1,1,1,"G000561001000120010","1","270002","11",2,2,"2005-10-28",1,"G0005610010010"
"G000561001000210","工业园匝道-龙门匝道",2,4130,"35.590876","110.559901",840.5,844.73,"35.567349","110.523919","G000561","2025-10-27",2,1,0,"G0005610010110","G0005610010020",400306,400304,"G000561001000210",40,1,"阎禹高速",1,1,1,1,"G000561001000210010","0","270003","0",3,1,"2005-10-28",1,
"G000561001000220","龙门匝道-工业园匝道",2,4130,"35.567164","110.524130",844.73,840.5,"35.590934","110.560509","G000561","2025-10-27",2,1,0,"G0005610010020","G0005610010110",400304,400306,"G000561001000220",40,1,"阎禹高速",1,1,1,1,"G000561001000220010","0","270004","0",4,2,"2005-10-28",1,
"G000561001000310","龙门匝道-韩城匝道",2,11200,"35.567349","110.523919",844.73,855.96,"35.506688","110.488312","G000561","2025-10-27",2,1,0,"G0005610010020","G0005610010030",400304,400303,"G000561001000310",40,1,"阎禹高速",1,1,1,1,"G000561001000310010","0","270005","0",5,1,"2005-10-28",1,
"G000561001000320","韩城匝道-龙门匝道",2,11200,"35.477377","110.477181",855.96,844.73,"35.567164","110.524130","G000561","2025-10-27",2,1,0,"G0005610010030","G0005610010020",400303,400304,"G000561001000320",40,1,"阎禹高速",1,1,1,1,"G000561001000320010","0","270006","0",6,2,"2005-10-28",1,
"G000561001000410","韩城匝道-芝川匝道",2,17780,"35.506688","110.488312",855.96,873.73,"35.392917","110.443767","G000561","2025-10-27",0,1,0,"G0005610010030","G0005610010040",400303,400302,"G000561001000410",40,1,"阎禹高速",1,1,1,1,"G000561001000410010","0","270007","0",7,1,"2005-10-28",1,
"G000561001000420","芝川匝道-韩城匝道",2,17780,"35.231109","110.179817",873.73,855.96,"35.477377","110.477181","G000561","2025-10-27",0,1,0,"G0005610010040","G0005610010030",400302,400303,"G000561001000420",40,1,"阎禹高速",1,1,1,1,"G000561001000420010","0","270008","0",8,2,"2005-10-28",1,
"G000561001000510","芝川匝道-合阳东枢纽",2,13570,"35.392917","110.443767",873.73,887.3,"35.210488","110.163924","G000561","2025-10-27",0,1,0,"G0005610010040","G0005610010050",400302,400301,"G000561001000510",40,1,"阎禹高速",1,1,1,1,"G000561001000510010","0","270009","0",9,1,"2005-10-28",1,
"G000561001000520","合阳东枢纽-芝川匝道",2,13570,"35.209480","110.162476",887.3,873.73,"35.231109","110.179817","G000561","2025-10-27",0,1,0,"G0005610010050","G0005610010040",0,400302,"G000561001000520",40,1,"阎禹高速",1,1,1,1,"G000561001000520010","0","27000A","0",10,2,"2005-10-28",1,
"G000561001000610","合阳匝道-澄城匝道",2,33850,"35.210597","110.163844",901.572,934.689,"35.003307","109.928957","G000561","2025-10-27",0,1,0,"G0005610010050","G0005610010060",400301,400203,"G000561001000610",40,1,"阎禹高速",1,1,1,1,"G000561001000610010","0","27000B","0",11,1,"2005-10-28",1,
"G000561001000620","澄城匝道-合阳匝道",2,33850,"35.003019","109.928991",934.689,901.572,"35.210345","110.164036","G000561","2025-10-27",0,1,0,"G0005610010060","G0005610010050",400203,400301,"G000561001000620",40,1,"阎禹高速",1,1,1,1,"G000561001000620010","0","27000C","0",12,2,"2005-10-28",1,
"G000561001000710","澄城匝道-孙镇匝道",2,17490,"35.003307","109.928957",934.689,952.9,"34.934950","109.762972","G000561","2025-10-27",0,1,0,"G0005610010060","G0005610010070",400203,400202,"G000561001000710",40,1,"阎禹高速",1,1,1,1,"G000561001000710010","0","27000D","0",13,1,"2005-10-28",1,
"G000561001000720","孙镇匝道-澄城匝道",2,17490,"34.934715","109.762868",952.9,934.689,"35.003019","109.928991","G000561","2025-10-27",0,1,0,"G0005610010070","G0005610010060",400202,400203,"G000561001000720",40,1,"阎禹高速",1,1,1,1,"G000561001000720010","0","27000E","0",14,2,"2005-10-28",1,
"G000561001000810","孙镇匝道-东杨互通",2,10580,"34.934950","109.762972",952.9,963.57,"34.913523","109.650883","G000561","2025-10-27",0,1,0,"G0005610010070",,400202,9990204,"G000561001000810",40,1,"阎禹高速",1,1,1,1,"G000561001000810010","0","27000F","0",15,1,"2005-10-28",1,
"G000561001000820","东杨互通-孙镇匝道",2,10580,"34.913255","109.651036",963.57,952.9,"34.934715","109.762868","G000561","2025-10-27",0,1,0,,"G0005610010070",9990204,400202,"G000561001000820",40,1,"阎禹高速",1,1,1,1,"G000561001000820010","0","270010","0",16,2,"2005-10-28",1,
"G000561001000910","东杨互通-蒲城匝道",2,4704,"34.912906","109.650841",963.57,968.274,"34.904454","109.601696","G000561","2025-10-27",0,1,0,,"G0005610010080",9990204,400201,"G000561001000910",40,1,"阎禹高速",1,1,1,1,"G000561001000910010","0","270011","0",17,1,"2005-10-28",1,
"G000561001000920","蒲城匝道-东杨互通",2,4704,"34.904179","109.601924",968.274,963.57,"34.912906","109.650841","G000561","2025-10-27",0,1,0,"G0005610010080",,400201,9990204,"G000561001000920",40,1,"阎禹高速",1,1,1,1,"G000561001000920010","0","270012","0",18,2,"2005-10-28",1,
"G000561001001010","蒲城匝道-荆姚匝道",2,16090,"34.904454","109.601696",968.274,984.364,"34.858420","109.441269","G000561","2025-10-27",0,1,0,"G0005610010080","G0005610010090",400201,400102,"G000561001001010",40,1,"阎禹高速",1,1,1,1,"G000561001001010010","0","270013","0",19,1,"2005-10-28",1,
"G000561001001020","荆姚匝道-蒲城匝道",2,16090,"34.858325","109.441540",984.364,968.274,"34.904179","109.601924","G000561","2025-10-27",0,1,0,"G0005610010090","G0005610010080",400102,400201,"G000561001001020",40,1,"阎禹高速",1,1,1,1,"G000561001001020010","0","270014","0",20,2,"2005-10-28",1,
"G000561001001110","荆姚匝道-富平匝道",2,24841,"34.858420","109.441269",984.364,1009.205,"34.725397","109.229122","G000561","2025-10-27",0,1,0,"G0005610010090","G0005610010100",400102,400101,"G000561001001110",40,1,"阎禹高速",1,1,1,1,"G000561001001110010","0","270015","0",21,1,"2005-10-28",1,
"G000561001001120","富平匝道-荆姚匝道",2,24841,"34.725434","109.229693",1009.205,984.364,"34.858325","109.441540","G000561","2025-10-27",0,1,0,"G0005610010100","G0005610010090",400101,400102,"G000561001001120",40,1,"阎禹高速",1,1,1,1,"G000561001001120010","0","270016","0",22,2,"2005-10-28",1,
"G000561001001210","富平匝道-阎禹交界点",2,7545,"34.725580","109.229317",1009.205,1013,"34.697081","109.207547","G000561","2025-10-27",0,1,0,"G0005610010100",,400101,9990009,"G000561001001210",40,1,"阎禹高速",1,1,1,1,"G000561001001210010","0","270017","0",23,1,"2005-10-28",1,
"G000561001001220","阎禹交界点-富平匝道",2,7545,"34.697081","109.207547",1013,1009.205,"34.725434","109.229693","G000561","2025-10-27",0,1,0,,"G0005610010100",9990009,400101,"G000561001001220",40,1,"阎禹高速",1,1,1,1,"G000561001001220010","0","270018","0",24,2,"2005-10-28",1,
"G000561001001310","龙门工业园站-龙门工业园",2,0,"35.591404","110.555108",840.69,844.82,"35.567688","110.518730","G000561","2025-10-27",0,1,0,"G0005610010110","G0005610010020",400306,400304,"G000561001001310",40,1,"阎禹高速",1,1,1,1,"G000561001001310010","0",,"6",1054,1,"2005-10-28",2,
"G000561001001320","龙门工业园-龙门工业园站",2,0,"35.567688","110.518730",844.82,840.69,"35.591404","110.555108","G000561","2025-10-27",0,1,0,"G0005610010020","G0005610010110",400304,400306,"G000561001001320",40,1,"阎禹高速",1,1,1,1,"G000561001001320010","0",,"6",1055,2,"2005-10-28",2,
"G000561001001410","龙门站-龙门",2,0,"35.567688","110.518730",844.82,856.02,"35.477235","110.471592","G000561","2025-10-27",0,1,0,"G0005610010020","G0005610010030",400304,400303,"G000561001001410",40,1,"阎禹高速",1,1,1,1,"G000561001001410010","0",,"6",1036,1,"2005-10-28",2,
"G000561001001420","龙门-龙门站",2,0,"35.477235","110.471592",856.02,844.82,"35.567688","110.518730","G000561","2025-10-27",0,1,0,"G0005610010030","G0005610010020",400303,400304,"G000561001001420",40,1,"阎禹高速",1,1,1,1,"G000561001001420010","0",,"6",1037,2,"2005-10-28",2,
"G000561001001510","韩城站-韩城",2,0,"35.477235","110.471592",856.02,873.8,"35.341637","110.383738","G000561","2025-10-27",0,1,0,"G0005610010030","G0005610010040",400303,400302,"G000561001001510",40,1,"阎禹高速",1,1,1,1,"G000561001001510010","0",,"6",1038,1,"2005-10-28",2,
"G000561001001520","韩城-韩城站",2,0,"35.341637","110.383738",873.8,856.02,"35.477235","110.471592","G000561","2025-10-27",0,1,0,"G0005610010040","G0005610010030",400302,400303,"G000561001001520",40,1,"阎禹高速",1,1,1,1,"G000561001001520010","0",,"6",1039,2,"2005-10-28",2,
"G000561001001610","芝川站-芝川",2,0,"35.341637","110.383738",873.8,901.65,"35.210810","110.158477","G000561","2025-10-27",0,1,0,"G0005610010040","G0005610010050",400302,400301,"G000561001001610",40,1,"阎禹高速",1,1,1,1,"G000561001001610010","0",,"6",1040,1,"2005-10-28",2,
"G000561001001620","芝川-芝川站",2,0,"35.210810","110.158477",901.65,873.8,"35.341637","110.383738","G000561","2025-10-27",0,1,0,"G0005610010050","G0005610010040",400301,400302,"G000561001001620",40,1,"阎禹高速",1,1,1,1,"G000561001001620010","0",,"6",1041,2,"2005-10-28",2,
"G000561001001710","合阳站-合阳",2,0,"35.210810","110.158477",901.65,935.5,"35.004106","109.923889","G000561","2025-10-27",0,1,0,"G0005610010050","G0005610010060",400301,400203,"G000561001001710",40,1,"阎禹高速",1,1,1,1,"G000561001001710010","0",,"6",1042,1,"2005-10-28",2,
"G000561001001720","合阳-合阳站",2,0,"35.004106","109.923889",935.5,901.65,"35.210810","110.158477","G000561","2025-10-27",0,1,0,"G0005610010060","G0005610010050",400203,400301,"G000561001001720",40,1,"阎禹高速",1,1,1,1,"G000561001001720010","0",,"6",1043,2,"2005-10-28",2,
"G000561001001810","澄城站-澄城",2,0,"35.004106","109.923889",935.5,952.99,"34.980828","109.870805","G000561","2025-10-27",0,1,0,"G0005610010060","G0005610010070",400203,400202,"G000561001001810",40,1,"阎禹高速",1,1,1,1,"G000561001001810010","0",,"6",1044,1,"2005-10-28",2,
"G000561001001820","澄城-澄城站",2,0,"34.980828","109.870805",952.99,935.5,"35.004106","109.923889","G000561","2025-10-27",0,1,0,"G0005610010070","G0005610010060",400202,400203,"G000561001001820",40,1,"阎禹高速",1,1,1,1,"G000561001001820010","0",,"6",1045,2,"2005-10-28",2,
"G000561001001910","孙镇站-孙镇",2,0,"34.935798","109.757898",952.99,963.57,"34.914297","109.645777","G000561","2025-10-27",0,1,0,"G0005610010070",,400202,9990204,"G000561001001910",40,1,"阎禹高速",1,1,1,1,"G000561001001910010","0",,"6",1046,1,"2005-10-28",2,
"G000561001001920","孙镇-孙镇站",2,0,"34.914297","109.645777",963.57,952.99,"34.935798","109.757898","G000561","2025-10-27",0,1,0,,"G0005610010070",9990204,400202,"G000561001001920",40,1,"阎禹高速",1,1,1,1,"G000561001001920010","0",,"6",1047,2,"2005-10-28",2,
"G000561001002010","蒲城站-蒲城",2,0,"34.914297","109.645777",963.57,968.274,"34.905262","109.596570","G000561","2025-10-27",0,1,0,,"G0005610010080",9990204,400201,"G000561001002010",40,1,"阎禹高速",1,1,1,1,"G000561001002010010","0",,"6",1048,1,"2005-10-28",2,
"G000561001002020","蒲城-蒲城站",2,0,"34.905262","109.596570",968.274,963.57,"34.914297","109.645777","G000561","2025-10-27",0,1,0,"G0005610010080",,400201,9990204,"G000561001002020",40,1,"阎禹高速",1,1,1,1,"G000561001002020010","0",,"6",1049,2,"2005-10-28",2,
"G000561001002110","荆姚站-荆姚",2,0,"34.905262","109.596570",968.274,984.364,"34.859164","109.436021","G000561","2025-10-27",0,1,0,"G0005610010080","G0005610010090",400201,400102,"G000561001002110",40,1,"阎禹高速",1,1,1,1,"G000561001002110010","0",,"6",1050,1,"2005-10-28",2,
"G000561001002120","荆姚-荆姚站",2,0,"34.859164","109.436021",984.364,968.274,"34.905262","109.596570","G000561","2025-10-27",0,1,0,"G0005610010090","G0005610010080",400102,400201,"G000561001002120",40,1,"阎禹高速",1,1,1,1,"G000561001002120010","0",,"6",1051,2,"2005-10-28",2,
"G000561001002210","富平站-富平",2,0,"34.859164","109.436021",984.364,1009.205,"34.726618","109.224425","G000561","2025-10-27",0,1,0,"G0005610010090","G0005610010100",400102,400101,"G000561001002210",40,1,"阎禹高速",1,1,1,1,"G000561001002210010","0",,"6",1052,1,"2005-10-28",2,
"G000561001002220","富平-富平站",2,0,"34.726618","109.224425",1009.205,984.364,"34.859164","109.436021","G000561","2025-10-27",0,1,0,"G0005610010100","G0005610010090",400101,400102,"G000561001002220",40,1,"阎禹高速",1,1,1,1,"G000561001002220010","0",,"6",1053,2,"2005-10-28",2,
"G000561001002310","合阳东枢纽-合阳匝道",2,14280,"38.788470","109.788470",887.3,901.63,"38.788470","109.788470","G000561","2025-10-27",0,1,0,,"G0005610010050",0,400301,"G000561001002310",40,1,"阎禹高速",1,1,1,1,"G000561001002310010",,,"0",,1,"2021-01-01",1,
"G000561001002320","合阳匝道-合阳东枢纽",2,14280,"35.647205","110.586035",901.63,887.3,"35.647202","109.788470","G000561","2025-10-27",0,1,0,"G0005610010050",,400301,0,"G000561001002320",40,1,"阎禹高速",1,1,1,1,"G000561001002320010",,,"0",,2,"2021-01-01",1,
"G000561002000110","阎禹交界点-阎良匝道",2,1500,"34.697152","109.207518",1013,1018.25,"34.654620","109.183567","G000561","2021-09-30",0,1,0,,"G0005610020010",9990009,410102,"G000561001001210",41,1,"西阎高速",1,1,1,1,"G000561001001210010","0","270019","0",25,1,"2001-10-01",2,
"G000561002000120","阎良匝道-阎禹交界点",2,1500,"34.654698","109.183889",1018.25,1013,"34.697120","109.207839","G000561","2021-09-30",0,1,0,"G0005610020010",,410102,9990009,"G000561001001220",41,1,"西阎高速",1,1,1,1,"G000561001001220010","0","27001A","0",26,2,"2001-10-01",2,
"G000561002000210","阎良匝道-高陵北互通",2,14280,"34.654620","109.183567",1018.25,1032.53,"34.547781","109.111149","G000561","2021-09-30",0,1,0,"G0005610020010",,410102,9900620,"G000561002000210",41,1,"西阎高速",1,1,1,1,"G000561002000210010","0","27001B","0",27,1,"2001-10-01",1,
"G000561002000220","高陵北互通-阎良匝道",2,14280,"34.547992","109.111449",1032.53,1018.25,"34.654698","109.183889","G000561","2021-09-30",0,1,0,,"G0005610020010",9900620,410102,"G000561002000220",41,1,"西阎高速",1,1,1,1,"G000561002000220010","0","27001C","0",28,2,"2001-10-01",1,
"G000561002000310","高陵北互通-高陵匝道",2,2820,"34.547781","109.111149",1032.53,1035.35,"34.523255","109.118032","G000561","2021-09-30",0,1,0,,"G0005610020020",9900620,410101,"G000561002000310",41,1,"西阎高速",1,1,1,1,"G000561002000310010","0","27001D","0",29,1,"2001-10-01",1,
"G000561002000320","高陵匝道-高陵北互通",2,2820,"34.523503","109.118370",1035.35,1032.53,"34.547992","109.111449","G000561","2021-09-30",0,1,0,"G0005610020020",,410101,9900620,"G000561002000320",41,1,"西阎高速",1,1,1,1,"G000561002000320010","0","27001E","0",30,2,"2001-10-01",1,
"G000561002000410","高陵匝道-港务区匝道",2,14800,"34.523255","109.118032",1035.35,1050,"34.393317","109.114744","G000561","2021-09-30",0,1,0,"G0005610020020","G0005610020030",410101,410103,"G000561002000410",41,1,"西阎高速",1,1,1,1,"G000561002000410010","0","27001F","0",31,1,"2001-10-01",1,
"G000561002000420","港务区匝道-高陵匝道",2,14800,"34.393307","109.115054",1050,1035.35,"34.523503","109.118370","G000561","2021-09-30",0,1,0,"G0005610020030","G0005610020020",410103,410101,"G000561002000420",41,1,"西阎高速",1,1,1,1,"G000561002000420010","0","270020","0",32,2,"2001-10-01",1,
"G000561002000510","港务区匝道-谢王互通",2,5850,"34.393317","109.114744",1050,1056,"34.357259","109.073933","G000561","2021-09-30",0,1,0,"G0005610020030",,410103,9990003,"G000561002000510",41,1,"西阎高速",1,1,1,1,"G000561002000510010","0","270021","0",33,1,"2001-10-01",1,
"G000561002000520","谢王互通-港务区匝道",2,5850,"34.357151","109.074200",1056,1050,"34.393307","109.115054","G000561","2021-09-30",0,1,0,,"G0005610020030",9990003,410103,"G000561002000520",41,1,"西阎高速",1,1,1,1,"G000561002000520010","0","270022","0",34,2,"2001-10-01",1,
"G000561002000610","阎良站-阎良",2,0,"34.655916","109.178528",1018.25,1032.53,"34.550727","109.109185","G000561","2021-09-30",0,1,0,"G0005610020010",,410102,9900620,"G000561002000610",41,1,"西阎高速",1,1,1,1,"G000561002000610010","0",,"6",1056,1,"2001-10-01",2,
"G000561002000620","阎良-阎良站",2,0,"34.550727","109.109185",1032.53,1018.25,"34.655916","109.178528","G000561","2021-09-30",0,1,0,,"G0005610020010",9900620,410102,"G000561002000620",41,1,"西阎高速",1,1,1,1,"G000561002000620010","0",,"6",1057,2,"2001-10-01",2,
"G000561002000710","高陵站-高陵",2,0,"34.550727","109.109185",1032.53,1035.35,"34.524325","109.113317","G000561","2021-09-30",0,1,0,,"G0005610020020",9900620,410101,"G000561002000710",41,1,"西阎高速",1,1,1,1,"G000561002000710010","0",,"6",1058,1,"2001-10-01",2,
"G000561002000720","高陵-高陵站",2,0,"34.524325","109.113317",1035.35,1032.53,"34.550727","109.109185","G000561","2021-09-30",0,1,0,"G0005610020020",,410101,9900620,"G000561002000720",41,1,"西阎高速",1,1,1,1,"G000561002000720010","0",,"6",1059,2,"2001-10-01",2,
"G000561002000810","港务区站-港务区",2,0,"34.524325","109.113317",1035.35,1050,"34.390653","109.109425","G000561","2021-09-30",0,1,0,"G0005610020020","G0005610020030",410101,410103,"G000561002000810",41,1,"西阎高速",1,1,1,1,"G000561002000810010","0",,"6",1060,1,"2001-10-01",2,
"G000561002000820","港务区-港务区站",2,0,"34.390653","109.109425",1050,1035.35,"34.524325","109.113317","G000561","2021-09-30",0,1,0,"G0005610020030","G0005610020020",410103,410101,"G000561002000820",41,1,"西阎高速",1,1,1,1,"G000561002000820010","0",,"6",1061,2,"2001-10-01",2,
"G000561003000110","西户立交-三星立交",2,6900,"34.184527","108.819165",1100.408,1108.119,"34.153684","108.754929","G000561","2023-12-09",0,1,0,,,9990008,9900014,"G000561003000110",42,1,"西户高速",1,1,1,1,"G000561003000110010","0","270023","0",35,1,"2003-12-10",1,
"G000561003000120","三星立交-西户立交",2,6900,"34.151225","108.756178",1108.119,1100.408,"34.184527","108.819165","G000561","2023-12-09",0,1,0,,,9900014,9990008,"G000561003000120",42,1,"西户高速",1,1,1,1,"G000561003000120010","0","270024","0",36,2,"2003-12-10",1,
"G000561003000210","三星A收费站-三星立交",2,5596,"34.149704","108.756792",1108.126,1108.126,"34.153269","108.754936","G000561","2023-12-09",0,1,0,"G0005610030010",,420103,9900014,"G000561003000210",42,1,"西户高速",1,1,1,1,"G000561003000210010","0","270025","2",37,1,"2003-12-10",2,
"G000561003000220","三星立交-三星A收费站",2,5596,"34.152880","108.754166",1108.119,1108.119,"34.149704","108.756792","G000561","2023-12-09",0,1,0,,"G0005610030010",9900014,420103,"G000561003000220",42,1,"西户高速",1,1,1,1,"G000561003000220010","0","270026","2",38,2,"2003-12-10",2,
"G000561003000310","三星立交-鄠邑东立交",2,6500,"34.153684","108.754929",1108.119,1114.367,"34.132751","108.693695","G000561","2023-12-09",0,1,0,,,9900014,9900615,"G000561003000310",42,1,"西户高速",1,1,1,1,"G000561003000310010","0","270027","0",39,1,"2003-12-10",1,
"G000561003000320","鄠邑东立交-三星立交",2,6500,"34.132825","108.694180",1114.367,1108.119,"34.152880","108.754166","G000561","2023-12-09",0,1,0,,,9900615,9900014,"G000561003000320",42,1,"西户高速",1,1,1,1,"G000561003000320010","0","270028","0",40,2,"2003-12-10",1,
"G000561003000410","鄠邑东立交-鄠邑匝道",2,3600,"34.132225","108.693192",1114.367,1117.974,"34.105955","108.673130","G000561","2023-12-09",0,1,0,,"G0005610030020",9900615,420101,"G000561003000410",42,1,"西户高速",1,1,1,1,"G000561003000410010","0","270029","0",41,1,"2003-12-10",1,
"G000561003000420","鄠邑匝道-鄠邑东立交",2,3600,"34.104027","108.674539",1117.974,1114.367,"34.132825","108.694180","G000561","2023-12-09",0,1,0,"G0005610030020",,420101,9900615,"G000561003000420",42,1,"西户高速",1,1,1,1,"G000561003000420010","0","27002A","0",42,2,"2003-12-10",1,
"G000561003000510","鄠邑匝道-涝峪匝道",2,15000,"34.105839","108.674489",1117.974,1132.179,"34.039129","108.550464","G000561","2023-12-09",0,1,0,"G0005610030020","G0005610030030",420101,420102,"G000561003000510",42,1,"西户高速",1,1,1,1,"G000561003000510010","0","27002B","0",43,1,"2003-12-10",1,
"G000561003000520","涝峪匝道-鄠邑匝道",2,15000,"34.039350","108.550168",1132.179,1117.974,"34.103224","108.673169","G000561","2023-12-09",0,1,0,"G0005610030030","G0005610030020",420102,420101,"G000561003000520",42,1,"西户高速",1,1,1,1,"G000561003000520010","0","27002C","0",44,2,"2003-12-10",1,
"G000561003000610","涝峪匝道-西户拆分点",2,1520,"34.039668","108.550200",1132.179,1133.928,"34.018536","108.539041","G000561","2023-12-09",0,1,0,,,,,"G000561004000110",42,1,"西户高速",1,1,1,1,"G000561004000110010","0","27002D","0",45,1,"2003-12-10",1,
"G000561003000620","西户拆分点-涝峪匝道",2,1520,"34.018074","108.538853",1133.928,1132.179,"34.037778","108.548607","G000561","2023-12-09",0,1,0,,,,,"G000561004000120",42,1,"西户高速",1,1,1,1,"G000561004000120010","0","27002E","0",46,2,"2003-12-10",1,
"G000561003000710","鄠邑站-鄠邑",2,0,"34.134462","108.689527",1114.367,1117.974,"34.105906","108.668694","G000561","2023-12-09",0,1,0,,"G0005610030020",9900615,420101,"G000561003000710",42,1,"西户高速",1,1,1,1,"G000561003000710010","0",,"6",1062,1,"2003-12-10",2,
"G000561003000720","鄠邑-鄠邑站",2,0,"34.105906","108.668694",1117.974,1114.367,"34.134462","108.689527","G000561","2023-12-09",0,1,0,"G0005610030020",,420101,9900615,"G000561003000720",42,1,"西户高速",1,1,1,1,"G000561003000720010","0",,"6",1063,2,"2003-12-10",2,
"G000561003000810","涝峪站-涝峪",2,0,"34.105906","108.668694",1117.974,1132.179,"34.041324","108.545898","G000561","2023-12-09",0,1,0,"G0005610030020","G0005610030030",420101,420102,"G000561003000810",42,1,"西户高速",1,1,1,1,"G000561003000810010","0",,"6",1064,1,"2003-12-10",2,
"G000561003000820","涝峪-涝峪站",2,0,"34.041324","108.545898",1132.179,1117.974,"34.105906","108.668694","G000561","2023-12-09",0,1,0,"G0005610030030","G0005610030020",420102,420101,"G000561003000820",42,1,"西户高速",1,1,1,1,"G000561003000820010","0",,"6",1065,2,"2003-12-10",2,
"G000561003000910","三星B收费站-三星B",2,0,"34.149704","108.756792",1108.126,1108.126,"34.153269","108.754936","G000561","2023-12-09",0,1,0,"G0005610030040","G0005610030040",420104,420104,"G000561003000910",42,1,"西户高速",1,1,1,1,"G000561003000910010","0",,"6",1672,1,"2003-12-10",2,
"G000561003000920","三星B-三星B收费站",2,0,"34.152880","108.754166",1108.119,1108.119,"34.149704","108.756792","G000561","2023-12-09",0,1,0,"G0005610030040","G0005610030040",420104,420104,"G000561003000920",42,1,"西户高速",1,1,1,1,"G000561003000920010","0",,"6",1673,2,"2003-12-10",2,
"G000561004000110","西户拆分点-纸坊匝道",2,8640,"34.018536","108.539041",1133.928,1142.305,"33.951996","108.528226","G000561","2027-09-27",0,1,0,"G0005610030030","G0005610040010",420102,450403,"G000561004000110",45,1,"西汉北高速",1,2,2,1,"G000561004000110010","0","27002F","0",47,1,"2007-09-27",1,
"G000561004000120","纸坊匝道-西户拆分点",2,8640,"33.951729","108.528289",1142.305,1133.928,"34.018074","108.538853","G000561","2027-09-27",0,1,0,"G0005610040010","G0005610030030",450403,420102,"G000561004000120",45,1,"西汉北高速",1,2,2,1,"G000561004000120010","0","270030","0",48,2,"2007-09-27",1,
"G000561004000210","纸坊匝道-朱雀匝道",2,14230,"33.951748","108.528282",1142.305,1156.55,"33.836925","108.515245","G000561","2027-09-27",0,1,0,"G0005610040010","G0005610040020",450403,450402,"G000561004000210",45,1,"西汉北高速",1,2,2,1,"G000561004000210010","0","270031","0",49,1,"2007-09-27",1,
"G000561004000220","朱雀匝道-纸坊匝道",2,14230,"33.835772","108.515884",1156.55,1142.305,"33.951887","108.528562","G000561","2027-09-27",0,1,0,"G0005610040020","G0005610040010",450402,450403,"G000561004000220",45,1,"西汉北高速",1,2,2,1,"G000561004000220010","0","270032","0",50,2,"2007-09-27",1,
"G000561004000310","朱雀匝道-西汉隧道专项",2,32610,"33.831766","108.515751",1156.55,1189.23,"33.592745","108.406545","G000561","2027-09-27",0,1,0,"G0005610040020",,450402,,"G000561004000310",45,1,"西汉北高速",1,2,2,1,"G000561004000310010","0","270033","0",51,1,"2007-09-27",1,
"G000561004000320","西汉隧道专项-朱雀匝道",2,32610,"33.591577","108.405267",1189.23,1156.55,"33.832931","108.515676","G000561","2027-09-27",0,1,0,,"G0005610040020",,450402,"G000561004000320",45,1,"西汉北高速",1,2,2,1,"G000561004000320010","0","270034","0",52,2,"2007-09-27",1,
"G000561004000410","西汉隧道专项-皇冠匝道",2,1,"33.823993","108.519049",1157.807,1175.499,"33.713385","108.453864","G000561","2027-09-27",0,1,0,,"G0005610040040",,450401,"G000561004000310",45,0,"西汉隧道专项",2,2,2,1,"G000561004000310010","0","270035","0",53,1,"2007-09-27",1,
"G000561004000420","皇冠匝道-西汉隧道专项",2,1,"33.684414","108.430725",1175.8,1157.814,"33.782618","108.497574","G000561","2027-09-27",0,1,0,"G0005610040040",,450401,,"G000561004000320",45,0,"西汉隧道专项",2,2,2,1,"G000561004000320010","0","270036","0",54,2,"2007-09-27",1,
"G000561004000510","皇冠匝道-宁陕匝道",2,29180,"33.527324","108.345671",1189.23,1218.9,"33.416337","108.238232","G000561","2027-09-27",0,1,0,"G0005610040040","G0005610040050",450401,450303,"G000561004000510",45,1,"西汉北高速",1,2,2,1,"G000561004000510010","0","270037","0",55,1,"2007-09-27",1,
"G000561004000520","宁陕匝道-皇冠匝道",2,29180,"33.410320","108.235890",1218.9,1189.23,"33.527324","108.345671","G000561","2027-09-27",0,1,0,"G0005610040050","G0005610040040",450303,450401,"G000561004000520",45,1,"西汉北高速",1,2,2,1,"G000561004000520010","0","270038","0",56,2,"2007-09-27",1,
"G000561004000610","宁陕匝道-大河坝匝道",2,23950,"33.412203","108.238584",1218.9,1242.2,"33.302670","108.043309","G000561","2027-09-27",0,1,0,"G0005610040050","G0005610040060",450303,450302,"G000561004000610",45,1,"西汉北高速",1,2,2,1,"G000561004000610010","0","270039","0",57,1,"2007-09-27",1,
"G000561004000620","大河坝匝道-宁陕匝道",2,23950,"33.306607","108.063468",1242.2,1218.9,"33.410320","108.235890","G000561","2027-09-27",0,1,0,"G0005610040060","G0005610040050",450302,450303,"G000561004000620",45,1,"西汉北高速",1,2,2,1,"G000561004000620010","0","27003A","0",58,2,"2007-09-27",1,
"G000561004000710","大河坝匝道-金水匝道",2,21320,"33.301847","108.043780",1242.2,1264.158,"33.274446","107.840481","G000561","2027-09-27",0,1,0,"G0005610040060","G0005610040070",450302,450301,"G000561004000710",45,1,"西汉北高速",1,2,2,1,"G000561004000710010","0","27003B","0",59,1,"2007-09-27",1,
"G000561004000720","金水匝道-大河坝匝道",2,21320,"33.275060","107.845856",1264.158,1242.2,"33.300253","108.044018","G000561","2027-09-27",0,1,0,"G0005610040070","G0005610040060",450301,450302,"G000561004000720",45,1,"西汉北高速",1,2,2,1,"G000561004000720010","0","27003C","0",60,2,"2007-09-27",1,
"G000561004000810","纸坊站-纸坊",2,0,"34.041324","108.545898",1132.179,1142.305,"33.952399","108.352488","G000561","2027-09-27",0,1,0,"G0005610030030","G0005610040010",420102,450403,"G000561004000810",45,1,"西汉北高速",1,2,2,1,"G000561004000810010","0",,"6",1066,1,"2007-09-27",2,
"G000561004000820","纸坊-纸坊站",2,0,"33.952399","108.352488",1142.305,1132.179,"34.041324","108.545898","G000561","2027-09-27",0,1,0,"G0005610040010","G0005610030030",450403,420102,"G000561004000820",45,1,"西汉北高速",1,2,2,1,"G000561004000820010","0",,"6",1067,2,"2007-09-27",2,
"G000561004000910","朱雀站-朱雀",2,0,"33.952399","108.352488",1142.305,1156.55,"33.836307","108.511326","G000561","2027-09-27",0,1,0,"G0005610040010","G0005610040020",450403,450402,"G000561004000910",45,1,"西汉北高速",1,2,2,1,"G000561004000910010","0",,"6",1068,1,"2007-09-27",2,
"G000561004000920","朱雀-朱雀站",2,0,"33.836307","108.511326",1156.55,1142.305,"33.952399","108.352488","G000561","2027-09-27",0,1,0,"G0005610040020","G0005610040010",450402,450403,"G000561004000920",45,1,"西汉北高速",1,2,2,1,"G000561004000920010","0",,"6",1069,2,"2007-09-27",2,
"G000561004001010","皇冠站-皇冠",2,0,"33.777212","108.485959",1190.228,1190.228,"33.594087","108.399873","G000561","2027-09-27",0,1,0,,"G0005610040040",,450401,"G000561004001010",45,1,"西汉北高速",1,2,2,1,"G000561004001010010","0",,"6",1070,1,"2007-09-27",2,
"G000561004001020","皇冠-皇冠站",2,0,"33.594087","108.399873",1190.228,1190.228,"33.777212","108.485959","G000561","2027-09-27",0,1,0,"G0005610040040",,450401,,"G000561004001020",45,1,"西汉北高速",1,2,2,1,"G000561004001020010","0",,"6",1071,2,"2007-09-27",2,
"G000561004001110","宁陕站-宁陕",2,0,"33.594087","108.399873",1189.23,1218.9,"33.415047","108.232419","G000561","2027-09-27",0,1,0,"G0005610040040","G0005610040050",450401,450303,"G000561004001110",45,1,"西汉北高速",1,2,2,1,"G000561004001110010","0",,"6",1072,1,"2007-09-27",2,
"G000561004001120","宁陕-宁陕站",2,0,"33.415047","108.232419",1218.9,1189.23,"33.594087","108.399873","G000561","2027-09-27",0,1,0,"G0005610040050","G0005610040040",450303,450401,"G000561004001120",45,1,"西汉北高速",1,2,2,1,"G000561004001120010","0",,"6",1073,2,"2007-09-27",2,
"G000561004001210","大河坝站-大河坝",2,0,"33.415047","108.232419",1218.9,1242.2,"33.303159","108.039211","G000561","2027-09-27",0,1,0,"G0005610040050","G0005610040060",450303,450302,"G000561004001210",45,1,"西汉北高速",1,2,2,1,"G000561004001210010","0",,"6",1074,1,"2007-09-27",2,
"G000561004001220","大河坝-大河坝站",2,0,"33.303159","108.039211",1242.2,1218.9,"33.415047","108.232419","G000561","2027-09-27",0,1,0,"G0005610040060","G0005610040050",450302,450303,"G000561004001220",45,1,"西汉北高速",1,2,2,1,"G000561004001220010","0",,"6",1075,2,"2007-09-27",2,
"G000561004001310","金水站-金水",2,0,"33.303159","108.039211",1242.2,1263.6,"33.276210","107.836572","G000561","2027-09-27",0,1,0,"G0005610040060","G0005610040070",450302,450301,"G000561004001310",45,1,"西汉北高速",1,2,2,1,"G000561004001310010","0",,"6",1076,1,"2007-09-27",2,
"G000561004001320","金水-金水站",2,0,"33.276210","107.836572",1263.6,1242.2,"33.303159","108.039211","G000561","2027-09-27",0,1,0,"G0005610040070","G0005610040060",450301,450302,"G000561004001320",45,1,"西汉北高速",1,2,2,1,"G000561004001320010","0",,"6",1077,2,"2007-09-27",2,
"G000561005000110","金水匝道-龙亭匝道",2,19941,"33.274061","107.837280",1264.158,1284.099,"33.202051","107.653890","G000561","2027-09-27",0,1,0,"G0005610040070","G0005610050010",450301,430101,"G000561005000110",43,1,"西汉南高速",1,2,2,1,"G000561005000110010","0","27003D","0",61,1,"2007-09-26",1,
"G000561005000120","龙亭匝道-金水匝道",2,19941,"33.202534","107.647096",1284.099,1264.158,"33.273755","107.837191","G000561","2027-09-27",0,1,0,"G0005610050010","G0005610040070",430101,450301,"G000561005000120",43,1,"西汉南高速",1,2,2,1,"G000561005000120010","0","27003E","0",62,2,"2007-09-26",1,
"G000561005000210","龙亭匝道-洋县匝道",2,11702,"33.202051","107.653890",1284.099,1295.801,"33.196862","107.531222","G000561","2027-09-27",0,1,0,"G0005610050010","G0005610050020",430101,430102,"G000561005000210",43,1,"西汉南高速",1,2,2,1,"G000561005000210010","0","27003F","0",63,1,"2007-09-26",1,
"G000561005000220","洋县匝道-龙亭匝道",2,11702,"33.196076","107.523833",1295.801,1284.099,"33.202534","107.647096","G000561","2027-09-27",0,1,0,"G0005610050020","G0005610050010",430102,430101,"G000561005000220",43,1,"西汉南高速",1,2,2,1,"G000561005000220010","0","270040","0",64,2,"2007-09-26",1,
"G000561005000310","洋县匝道-城固匝道",2,17335,"33.196613","107.526042",1298.801,1313.136,"33.125757","107.370832","G000561","2027-09-27",0,1,0,"G0005610050020","G0005610050030",430102,430103,"G000561005000310",43,1,"西汉南高速",1,2,2,1,"G000561005000310010","0","270041","0",65,1,"2007-09-26",1,
"G000561005000320","城固匝道-洋县匝道",2,17335,"33.122504","107.362903",1313.136,1295.801,"33.196076","107.523833","G000561","2027-09-27",0,1,0,"G0005610050030","G0005610050020",430103,430102,"G000561005000320",43,1,"西汉南高速",1,2,2,1,"G000561005000320010","0","270042","0",66,2,"2007-09-26",1,
"G000561005000410","城固匝道-上元观匝道",2,13138,"33.125757","107.370832",1313.136,1326.274,"33.086085","107.240828","G000561","2027-09-27",0,1,0,"G0005610050030","G0005610050040",430103,430201,"G000561005000410",43,1,"西汉南高速",1,2,2,1,"G000561005000410010","0","270043","0",67,1,"2007-09-26",1,
"G000561005000420","上元观匝道-城固匝道",2,13138,"33.084683","107.239118",1326.274,1313.136,"33.122504","107.362903","G000561","2027-09-27",0,1,0,"G0005610050040","G0005610050030",430201,430103,"G000561005000420",43,1,"西汉南高速",1,2,2,1,"G000561005000420010","0","270044","0",68,2,"2007-09-26",1,
"G000561005000510","上元观匝道-谢家营立交",2,3259,"33.086085","107.240828",1326.274,1329.533,"33.069754","107.212891","G000561","2027-09-27",0,1,0,"G0005610050040",,430201,9990212,"G000561005000510",43,1,"西汉南高速",1,2,2,1,"G000561005000510010","0","270045","0",69,1,"2007-09-26",1,
"G000561005000520","谢家营立交-上元观匝道",2,3259,"33.062812","107.201347",1329.533,1326.274,"33.084683","107.239118","G000561","2027-09-27",0,1,0,,"G0005610050040",9990212,430201,"G000561005000520",43,1,"西汉南高速",1,2,2,1,"G000561005000520010","0","270046","0",70,2,"2007-09-26",1,
"G000561005000610","谢家营立交-汉中东匝道",2,7151,"33.069754","107.212891",1329.533,1336.684,"33.047645","107.142463","G000561","2027-09-27",0,1,0,,"G0005610050050",9990212,430202,"G000561005000610",43,1,"西汉南高速",1,2,2,1,"G000561005000610010","0","270047","0",71,1,"2007-09-26",1,
"G000561005000620","汉中东匝道-谢家营立交",2,7151,"33.046870","107.139363",1336.684,1329.533,"33.062812","107.201347","G000561","2027-09-27",0,1,0,"G0005610050050",,430202,9990212,"G000561005000620",43,1,"西汉南高速",1,2,2,1,"G000561005000620010","0","270048","0",72,2,"2007-09-26",1,
"G000561005000710","汉中东匝道-汉中匝道",2,13517,"33.047645","107.142463",1336.684,1350.201,"33.018508","107.004830","G000561","2027-09-27",0,1,0,"G0005610050050","G0005610050060",430202,430203,"G000561005000710",43,1,"西汉南高速",1,2,2,1,"G000561005000710010","0","270049","0",73,1,"2007-09-26",1,
"G000561005000720","汉中匝道-汉中东匝道",2,13517,"33.018206","107.004329",1350.201,1336.684,"33.046870","107.139363","G000561","2027-09-27",0,1,0,"G0005610050060","G0005610050050",430203,430202,"G000561005000720",43,1,"西汉南高速",1,2,2,1,"G000561005000720010","0","27004A","0",74,2,"2007-09-26",1,
"G000561005000810","汉中匝道-宝汉梁山立交",2,8235,"33.019630","106.996596",1350.201,1358.436,"33.046668","106.923299","G000561","2027-09-27",0,1,0,"G0005610050060",,430203,9900016,"G000561005000810",43,1,"西汉南高速",1,2,2,1,"G000561005000810010","0","27004B","0",75,1,"2007-09-26",1,
"G000561005000820","宝汉梁山立交-汉中匝道",2,8235,"33.049646","106.908586",1358.436,1350.201,"33.019498","106.996173","G000561","2027-09-27",0,1,0,,"G0005610050060",9900016,430203,"G000561005000820",43,1,"西汉南高速",1,2,2,1,"G000561005000820010","0","27004C","0",76,2,"2007-09-26",1,
"G000561005000910","宝汉梁山立交-勉县匝道",2,24791,"33.046668","106.923299",1358.436,1383.227,"33.064237","106.679409","G000561","2027-09-27",0,1,0,,"G0005610050070",9900016,430204,"G000561005000910",43,1,"西汉南高速",1,2,2,1,"G000561005000910010","0","27004D","0",77,1,"2007-09-26",1,
"G000561005000920","勉县匝道-宝汉梁山立交",2,24791,"33.063275","106.677447",1383.227,1358.436,"33.049646","106.908586","G000561","2027-09-27",0,1,0,"G0005610050070",,430204,9900016,"G000561005000920",43,1,"西汉南高速",1,2,2,1,"G000561005000920010","0","27004E","0",78,2,"2007-09-26",1,
"G000561005001010","龙亭站-龙亭",2,0,"33.276043","107.821744",1264.158,1284.099,"33.203941","107.649754","G000561","2027-09-27",0,1,0,"G0005610040070","G0005610050010",450301,430101,"G000561005001010",43,1,"西汉南高速",1,2,2,1,"G000561005001010010","0",,"6",1078,1,"2007-09-26",2,
"G000561005001020","龙亭-龙亭站",2,0,"33.203941","107.649754",1284.099,1264.158,"33.276210","107.836572","G000561","2027-09-27",0,1,0,"G0005610050010","G0005610040070",430101,450301,"G000561005001020",43,1,"西汉南高速",1,2,2,1,"G000561005001020010","0",,"6",1079,2,"2007-09-26",2,
"G000561005001110","洋县站-洋县",2,0,"33.203941","107.649754",1284.099,1295.801,"33.202831","107.526668","G000561","2027-09-27",0,1,0,"G0005610050010","G0005610050020",430101,430102,"G000561005001110",43,1,"西汉南高速",1,2,2,1,"G000561005001110010","0",,"6",1080,1,"2007-09-26",2,
"G000561005001120","洋县-洋县站",2,0,"33.198743","107.526668",1295.801,1284.099,"33.203941","107.649754","G000561","2027-09-27",0,1,0,"G0005610050020","G0005610050010",430102,430101,"G000561005001120",43,1,"西汉南高速",1,2,2,1,"G000561005001120010","0",,"6",1081,2,"2007-09-26",2,
"G000561005001210","城固站-城固",2,0,"33.198743","107.526668",1295.801,1313.136,"33.127367","107.365720","G000561","2027-09-27",0,1,0,"G0005610050020","G0005610050030",430102,430103,"G000561005001210",43,1,"西汉南高速",1,2,2,1,"G000561005001210010","0",,"6",1082,1,"2007-09-26",2,
"G000561005001220","城固-城固站",2,0,"33.127367","107.365720",1313.136,1295.801,"33.198743","107.526668","G000561","2027-09-27",0,1,0,"G0005610050030","G0005610050020",430103,430102,"G000561005001220",43,1,"西汉南高速",1,2,2,1,"G000561005001220010","0",,"6",1083,2,"2007-09-26",2,
"G000561005001310","上元观站-上元观",2,0,"33.127367","107.365720",1313.136,1326.274,"33.088085","107.236659","G000561","2027-09-27",0,1,0,"G0005610050030","G0005610050040",430103,430201,"G000561005001310",43,1,"西汉南高速",1,2,2,1,"G000561005001310010","0",,"6",1084,1,"2007-09-26",2,
"G000561005001320","上元观-上元观站",2,0,"33.088085","107.236659",1326.274,1313.136,"33.127367","107.365720","G000561","2027-09-27",0,1,0,"G0005610050040","G0005610050030",430201,430103,"G000561005001320",43,1,"西汉南高速",1,2,2,1,"G000561005001320010","0",,"6",1085,2,"2007-09-26",2,
"G000561005001410","汉中东站-汉中东",2,0,"33.071333","107.208111",1329.533,1336.684,"33.049387","107.137463","G000561","2027-09-27",0,1,0,,"G0005610050050",9990212,430202,"G000561005001410",43,1,"西汉南高速",1,2,2,1,"G000561005001410010","0",,"6",1086,1,"2007-09-26",2,
"G000561005001420","汉中东-汉中东站",2,0,"33.049387","107.137463",1336.684,1329.533,"33.071333","107.208111","G000561","2027-09-27",0,1,0,"G0005610050050",,430202,9990212,"G000561005001420",43,1,"西汉南高速",1,2,2,1,"G000561005001420010","0",,"6",1087,2,"2007-09-26",2,
"G000561005001510","汉中站-汉中",2,0,"33.049387","107.137463",1336.684,1350.201,"33.020366","107.000704","G000561","2027-09-27",0,1,0,"G0005610050050","G0005610050060",430202,430203,"G000561005001510",43,1,"西汉南高速",1,2,2,1,"G000561005001510010","0",,"6",1088,1,"2007-09-26",2,
"G000561005001520","汉中-汉中站",2,0,"33.020366","107.000704",1350.201,1336.684,"33.049387","107.137463","G000561","2027-09-27",0,1,0,"G0005610050060","G0005610050050",430203,430202,"G000561005001520",43,1,"西汉南高速",1,2,2,1,"G000561005001520010","0",,"6",1089,2,"2007-09-26",2,
"G000561005001610","勉县站-勉县",2,0,"33.048557","106.920007",1358.436,1383.227,"33.066253","106.675421","G000561","2027-09-27",0,1,0,,"G0005610050070",9900016,430204,"G000561005001610",43,1,"西汉南高速",1,2,2,1,"G000561005001610010","0",,"6",1090,1,"2007-09-26",2,
"G000561005001620","勉县-勉县站",2,0,"33.066253","106.675421",1383.227,1358.436,"33.048557","106.920007","G000561","2027-09-27",0,1,0,"G0005610050070",,430204,9900016,"G000561005001620",43,1,"西汉南高速",1,2,2,1,"G000561005001620010","0",,"6",1091,2,"2007-09-26",2,
"G000561006000110","勉县匝道-胡家坝匝道",2,24949,"32.968779","106.497810",1383.227,1408.176,"32.972439","106.479491","G000561","2027-09-27",0,1,0,"G0005610050070","G0005610060010",430204,440101,"G000561006000110",44,1,"勉宁高速",1,2,2,1,"G000561006000110010","0","27004F","0",79,1,"2007-09-26",1,
"G000561006000120","胡家坝匝道-勉县匝道",2,24949,"32.973860","106.476120",1408.176,1383.227,"33.063275","106.677447","G000561","2027-09-27",0,1,0,"G0005610060010","G0005610050070",440101,430204,"G000561006000120",44,1,"勉宁高速",1,2,2,1,"G000561006000120010","0","270050","0",80,2,"2007-09-26",1,
"G000561006000210","胡家坝匝道-韩家坝匝道",2,21905,"32.972651","106.479236",1408.176,1430.081,"32.849092","106.360866","G000561","2027-09-27",2,1,0,"G0005610060010","G0005610060020",440101,440102,"G000561006000210",44,1,"勉宁高速",1,2,2,1,"G000561006000210010","0","270051","0",81,1,"2007-09-26",1,
"G000561006000220","韩家坝匝道-胡家坝匝道",2,21905,"32.848345","106.357609",1430.081,1408.176,"32.973860","106.476120","G000561","2027-09-27",2,1,0,"G0005610060020","G0005610060010",440102,440101,"G000561006000220",44,1,"勉宁高速",1,2,2,1,"G000561006000220010","0","270052","0",82,2,"2007-09-26",1,
"G000561006000310","韩家坝匝道-宁强立交匝道",2,10166,"32.849084","106.360839",1430.081,1440.247,"32.820149","106.263081","G000561","2027-09-27",2,1,0,"G0005610060020","G0005610060030",440102,440103,"G000561006000310",44,1,"勉宁高速",1,2,2,1,"G000561006000310010","0","270053","0",83,1,"2007-09-26",1,
"G000561006000320","宁强立交匝道-韩家坝匝道",2,10166,"32.820686","106.259618",1440.247,1430.081,"32.848345","106.357609","G000561","2027-09-27",2,1,0,"G0005610060030","G0005610060020",440103,440102,"G000561006000320",44,1,"勉宁高速",1,2,2,1,"G000561006000320010","0","270054","0",84,2,"2007-09-26",1,
"G000561006000410","胡家坝站-胡家坝",2,0,"33.066253","106.675421",1383.227,1408.176,"32.973943","106.475883","G000561","2027-09-27",0,1,0,"G0005610050070","G0005610060010",430204,440101,"G000561006000410",44,1,"勉宁高速",1,2,2,1,"G000561006000410010","0",,"6",1092,1,"2007-09-26",2,
"G000561006000420","胡家坝-胡家坝站",2,0,"32.973934","106.475883",1408.176,1383.227,"33.066253","106.675421","G000561","2027-09-27",0,1,0,"G0005610060010","G0005610050070",440101,430204,"G000561006000420",44,1,"勉宁高速",1,2,2,1,"G000561006000420010","0",,"6",1093,2,"2007-09-26",2,
"G000561006000510","韩家坝站-韩家坝",2,0,"32.973934","106.475883",1408.176,1430.081,"32.850967","106.356978","G000561","2027-09-27",0,1,0,"G0005610060010","G0005610060020",440101,440102,"G000561006000510",44,1,"勉宁高速",1,2,2,1,"G000561006000510010","0",,"6",1094,1,"2007-09-26",2,
"G000561006000520","韩家坝-韩家坝站",2,0,"32.850967","106.356978",1430.081,1408.176,"33.066253","106.475883","G000561","2027-09-27",0,1,0,"G0005610060020","G0005610060010",440102,440101,"G000561006000520",44,1,"勉宁高速",1,2,2,1,"G000561006000520010","0",,"6",1095,2,"2007-09-26",2,
"G000561006000610","宁强立交站-宁强立交",2,0,"32.850967","106.356978",1430.081,1440.247,"32.822231","106.258940","G000561","2027-09-27",0,1,0,"G0005610060020","G0005610060030",440102,440103,"G000561006000610",44,1,"勉宁高速",1,2,2,1,"G000561006000610010","0",,"6",1096,1,"2007-09-26",2,
"G000561006000620","宁强立交-宁强立交站",2,0,"32.822231","106.258940",1440.247,1430.081,"32.850967","106.356978","G000561","2027-09-27",0,1,0,"G0005610060030","G0005610060020",440103,440102,"G000561006000620",44,1,"勉宁高速",1,2,2,1,"G000561006000620010","0",,"6",1097,2,"2007-09-26",2,
"G000561007000110","宁强立交匝道-宁强主线",2,18985,"32.820875","106.259831",1440.247,1459.232,"32.721554","106.113567","G000561","2027-09-27",1,1,0,"G0005610060030","G0005610070010",440103,460101,"G000561007000110",46,1,"宁棋高速",1,2,2,1,"G000561007000110010","1","270055","11",85,1,"2008-11-03",1,"G0005610070010"
"G000561007000120","宁强主线-宁强立交匝道",2,18985,"32.721390","106.114523",1459.232,1440.247,"32.820851","106.258289","G000561","2027-09-27",1,1,0,"G0005610070010","G0005610060030",460101,440103,"G000561007000120",46,1,"宁棋高速",1,2,2,1,"G000561007000120010","2","270056","12",86,2,"2008-11-03",1,"G0005610070010"
"G002061001000110","吴堡主线-吴堡匝道",2,2670,"37.461638","110.687932",1053.243,1053.382,"37.463333","110.686796","G002061","2027-10-27",1,1,0,"G0020610010010","G0020610010020",810105,810104,"G002061001000110",81,1,"吴子高速",1,2,2,1,"G002061001000110010","2","270057","12",87,1,"2007-10-19",1,"G0020610010010"
"G002061001000120","吴堡匝道-吴堡主线",2,2670,"37.462631","110.686587",1053.382,1053.243,"37.461638","110.687932","G002061","2027-10-27",1,1,0,"G0020610010020","G0020610010010",810104,810105,"G002061001000120",81,1,"吴子高速",1,2,2,1,"G002061001000120010","1","270058","11",88,2,"2007-10-19",1,"G0020610010010"
"G002061001000210","吴堡匝道-辛家沟立交",2,14030,"37.463333","110.686796",1053.382,1067.348,"37.571023","110.630832","G002061","2027-10-27",2,1,0,"G0020610010020","G0020610010030",810104,810103,"G002061001000210",81,1,"吴子高速",1,2,2,1,"G002061001000210010","0","270059","0",89,1,"2007-10-19",1,
"G002061001000220","辛家沟立交-吴堡匝道",2,14030,"37.571096","110.630368",1067.348,1053.382,"37.462631","110.686587","G002061","2027-10-27",2,1,0,"G0020610010030","G0020610010020",810103,810104,"G002061001000220",81,1,"吴子高速",1,2,2,1,"G002061001000220010","0","27005A","0",90,2,"2007-10-19",1,
"G002061001000310","辛家沟立交-中角立交",2,12100,"37.571023","110.630832",1067.348,1079.387,"37.573553","110.507573","G002061","2027-10-27",2,1,0,"G0020610010030","G0020610010040",810103,810102,"G002061001000310",81,1,"吴子高速",1,2,2,1,"G002061001000310010","0","27005B","0",91,1,"2007-10-19",1,
"G002061001000320","中角立交-辛家沟立交",2,12100,"37.572183","110.502966",1079.387,1067.348,"37.571096","110.630368","G002061","2027-10-27",2,1,0,"G0020610010040","G0020610010030",810102,810103,"G002061001000320",81,1,"吴子高速",1,2,2,1,"G002061001000320010","0","27005C","0",92,2,"2007-10-19",1,
"G002061001000410","中角立交-绥德立交",2,23290,"37.573553","110.507573",1079.387,1102.6,"37.561035","110.292112","G002061","2027-10-27",0,1,0,"G0020610010040","G0020610010050",810102,810101,"G002061001000410",81,1,"吴子高速",1,2,2,1,"G002061001000410010","0","27005D","0",93,1,"2007-10-19",1,
"G002061001000420","绥德立交-中角立交",2,23290,"37.560647","110.255586",1102.6,1079.387,"37.560240","110.257521","G002061","2027-10-27",0,1,0,"G0020610010050","G0020610010040",810101,810102,"G002061001000420",81,1,"吴子高速",1,2,2,1,"G002061001000420010","0","27005E","0",94,2,"2007-10-19",1,
"G002061001000510","绥德立交-石家湾立交",2,6760,"37.561035","110.292112",1102.6,1110.109,"37.560498","110.180200","G002061","2027-10-27",0,1,0,"G0020610010050",,810101,9900603,"G002061001000510",81,1,"吴子高速",1,2,2,1,"G002061001000510010","0","27005F","0",95,1,"2007-10-19",1,
"G002061001000520","石家湾立交-绥德立交",2,6760,"37.560870","110.177055",1110.109,1102.6,"37.561928","110.218017","G002061","2027-10-27",0,1,0,,"G0020610010050",9900603,810101,"G002061001000520",81,1,"吴子高速",1,2,2,1,"G002061001000520010","0","270060","0",96,2,"2007-10-19",1,
"G002061001000610","石家湾立交-吴子子靖拆分点",2,8480,"37.560186","110.194676",1110.109,1119.22,"37.579812","110.081047","G002061","2027-10-27",0,1,0,,,0,0,"G002061002000110",81,2,"吴子高速环",1,2,2,1,"G002061002000110010","0","270061","0",97,1,"2007-10-19",1,
"G002061001000620","吴子子靖拆分点-石家湾立交",2,8480,"37.579465","110.080902",1119.22,1110.109,"37.576804","110.115842","G002061","2027-10-27",0,1,0,,,0,0,"G002061002000120",81,2,"吴子高速环",1,2,2,1,"G002061002000120010","0","270062","0",98,2,"2007-10-19",1,
"G002061001000710","吴堡站-吴堡",2,0,"37.461734","110.682022",1053.243,1053.382,"37.458521","110.682025","G002061","2027-10-27",0,1,0,"G0020610010010","G0020610010020",810105,810104,"G002061001000710",81,1,"吴子高速",1,2,2,1,"G002061001000710010","0",,"6",1098,1,"2007-10-19",2,
"G002061001000720","吴堡-吴堡站",2,0,"37.461734","110.682022",1053.243,1053.382,"37.458521","110.682025","G002061","2027-10-27",0,1,0,"G0020610010020","G0020610010010",810104,810105,"G002061001000720",81,1,"吴子高速",1,2,2,1,"G002061001000720010","0",,"6",1099,2,"2007-10-19",2,
"G002061001000810","辛家沟站-辛家沟",2,0,"37.458521","110.682025",1053.382,1067.348,"37.570139","110.626426","G002061","2027-10-27",0,1,0,"G0020610010020","G0020610010030",810104,810103,"G002061001000810",81,1,"吴子高速",1,2,2,1,"G002061001000810010","0",,"6",1100,1,"2007-10-19",2,
"G002061001000820","辛家沟-辛家沟站",2,0,"37.458521","110.682025",1053.382,1067.348,"37.570139","110.626426","G002061","2027-10-27",0,1,0,"G0020610010030","G0020610010020",810103,810104,"G002061001000820",81,1,"吴子高速",1,2,2,1,"G002061001000820010","0",,"6",1101,2,"2007-10-19",2,
"G002061001000910","中角站-中角",2,0,"37.570139","110.626426",1067.348,1079.387,"37.572445","110.496361","G002061","2027-10-27",0,1,0,"G0020610010030","G0020610010040",810103,810102,"G002061001000910",81,1,"吴子高速",1,2,2,1,"G002061001000910010","0",,"6",1102,1,"2007-10-19",2,
"G002061001000920","中角-中角站",2,0,"37.570139","110.626426",1067.348,1079.387,"37.572445","110.496361","G002061","2027-10-27",0,1,0,"G0020610010040","G0020610010030",810102,810103,"G002061001000920",81,1,"吴子高速",1,2,2,1,"G002061001000920010","0",,"6",1103,2,"2007-10-19",2,
"G002061001001010","绥德站-绥德",2,0,"37.572445","110.496361",1079.387,1102.6,"37.558921","110.254449","G002061","2027-10-27",0,1,0,"G0020610010040","G0020610010050",810102,810101,"G002061001001010",81,1,"吴子高速",1,2,2,1,"G002061001001010010","0",,"6",1104,1,"2007-10-19",2,
"G002061001001020","绥德-绥德站",2,0,"37.572445","110.496361",1079.387,1102.6,"37.558921","110.254449","G002061","2027-10-27",0,1,0,"G0020610010050","G0020610010040",810101,810102,"G002061001001020",81,1,"吴子高速",1,2,2,1,"G002061001001020010","0",,"6",1105,2,"2007-10-19",2,
"G002061002000110","吴子子靖拆分点-子洲匝道",2,4670,"37.561098","110.176969",1110.109,1119.22,"37.579125","110.079977","G002061","2027-10-27",0,1,0,,"G0020610020010",9900603,800105,"G002061002000110",80,1,"子靖高速",1,2,2,1,"G002061002000110010","0","270063","0",99,1,"2007-10-19",1,
"G002061002000120","子洲匝道-吴子子靖拆分点",2,4670,"37.592396","110.059042",1122.3,1119.22,"37.578999","110.079716","G002061","2027-10-27",0,1,0,"G0020610020010",,800105,9900603,"G002061002000120",80,1,"子靖高速",1,2,2,1,"G002061002000120010","0","270064","0",100,2,"2007-10-19",1,
"G002061002000210","子洲立交-巡检司立交",2,18200,"37.592583","110.058990",1122.3,1141,"37.595479","109.876389","G002061","2027-10-27",0,1,0,"G0020610020010","G0020610020020",800105,800104,"G002061002000210",80,1,"子靖高速",1,2,2,1,"G002061002000210010","0","270065","0",101,1,"2007-10-19",1,
"G002061002000220","巡检司立交-子洲立交",2,18200,"37.595257","109.871074",1141,1122.3,"37.592396","110.059042","G002061","2027-10-27",0,1,0,"G0020610020020","G0020610020010",800104,800105,"G002061002000220",80,1,"子靖高速",1,2,2,1,"G002061002000220010","0","270066","0",102,2,"2007-10-19",1,
"G002061002000310","巡检司立交-魏家楼立交",2,31260,"37.595479","109.876389",1141,1172,"37.554282","109.543140","G002061","2027-10-27",0,1,0,"G0020610020020","G0020610020030",800104,800103,"G002061002000310",80,1,"子靖高速",1,2,2,1,"G002061002000310010","0","270067","0",103,1,"2007-10-19",1,
"G002061002000320","魏家楼立交-巡检司立交",2,31260,"37.552873","109.540817",1172,1141,"37.595257","109.871074","G002061","2027-10-27",0,1,0,"G0020610020030","G0020610020020",800103,800104,"G002061002000320",80,1,"子靖高速",1,2,2,1,"G002061002000320010","0","270068","0",104,2,"2007-10-19",1,
"G002061002000410","魏家楼立交-双城立交",2,20794,"37.554282","109.543140",1172,1193,"37.540781","109.331748","G002061","2027-10-27",0,1,0,"G0020610020030","G0020610020040",800103,800102,"G002061002000410",80,1,"子靖高速",1,2,2,1,"G002061002000410010","0","270069","0",105,1,"2007-10-19",1,
"G002061002000420","双城立交-魏家楼立交",2,20794,"37.539791","109.328659",1193,1172,"37.552873","109.540817","G002061","2027-10-27",0,1,0,"G0020610020040","G0020610020030",800102,800103,"G002061002000420",80,1,"子靖高速",1,2,2,1,"G002061002000420010","0","27006A","0",106,2,"2007-10-19",1,
"G002061002000510","双城立交-杨桥畔立交",2,32256,"37.540781","109.331748",1193,1225,"37.608507","109.008159","G002061","2027-10-27",0,1,0,"G0020610020040","G0020610020050",800102,800101,"G002061002000510",80,1,"子靖高速",1,2,2,1,"G002061002000510010","0","27006B","0",107,1,"2007-10-19",1,
"G002061002000520","杨桥畔立交-双城立交",2,32256,"37.609243","108.998669",1225,1193,"37.539791","109.328659","G002061","2027-10-27",0,1,0,"G0020610020050","G0020610020040",800101,800102,"G002061002000520",80,1,"子靖高速",1,2,2,1,"G002061002000520010","0","27006C","0",108,2,"2007-10-19",1,
"G002061002000610","杨桥畔立交-靖边立交",2,14833,"37.608507","109.008159",1225,1239.436,"37.635103","108.853562","G002061","2027-10-27",0,1,0,"G0020610020050",,800101,560105,"G002061002000610",80,1,"子靖高速",1,2,2,1,"G002061002000610010","0","27006D","0",109,1,"2007-10-19",1,
"G002061002000620","靖边立交-杨桥畔立交",2,14833,"37.634923","108.853854",1239.436,1225,"37.609243","108.998669","G002061","2027-10-27",0,1,0,,"G0020610020050",560105,800101,"G002061002000620",80,1,"子靖高速",1,2,2,1,"G002061002000620010","0","27006E","0",110,2,"2007-10-19",1,
"G002061002000710","子洲站-子洲",2,0,"37.559176","110.180186",1119.22,1122.3,"37.597725","110.052602","G002061","2027-10-27",0,1,0,,"G0020610020010",9900603,800105,"G002061002000710",80,1,"子靖高速",1,2,2,1,"G002061002000710010","0",,"6",1106,1,"2007-10-19",2,
"G002061002000720","子洲-子洲站",2,0,"37.559176","110.180186",1119.22,1122.3,"37.597725","110.052602","G002061","2027-10-27",0,1,0,"G0020610020010",,800105,9900603,"G002061002000720",80,1,"子靖高速",1,2,2,1,"G002061002000720010","0",,"6",1107,2,"2007-10-19",2,
"G002061002000810","巡检司站-巡检司",2,0,"37.597725","110.052602",1122.3,1141,"37.597902","109.869556","G002061","2027-10-27",0,1,0,"G0020610020010","G0020610020020",800105,800104,"G002061002000810",80,1,"子靖高速",1,2,2,1,"G002061002000810010","0",,"6",1108,1,"2007-10-19",2,
"G002061002000820","巡检司-巡检司站",2,0,"37.597725","110.052602",1122.3,1141,"37.597902","109.869556","G002061","2027-10-27",0,1,0,"G0020610020020","G0020610020010",800104,800105,"G002061002000820",80,1,"子靖高速",1,2,2,1,"G002061002000820010","0",,"6",1109,2,"2007-10-19",2,
"G002061002000910","魏家楼站-魏家楼",2,0,"37.597902","109.869556",1141,1172,"37.325159","109.315261","G002061","2027-10-27",0,1,0,"G0020610020020","G0020610020030",800104,800103,"G002061002000910",80,1,"子靖高速",1,2,2,1,"G002061002000910010","0",,"6",1110,1,"2007-10-19",2,
"G002061002000920","魏家楼-魏家楼站",2,0,"37.597902","109.869556",1141,1172,"37.325159","109.315261","G002061","2027-10-27",0,1,0,"G0020610020030","G0020610020020",800103,800104,"G002061002000920",80,1,"子靖高速",1,2,2,1,"G002061002000920010","0",,"6",1111,2,"2007-10-19",2,
"G002061002001010","双城站-双城",2,0,"37.325159","109.315261",1172,1193,"37.323111","109.192558","G002061","2027-10-27",0,1,0,"G0020610020030","G0020610020040",800103,800102,"G002061002001010",80,1,"子靖高速",1,2,2,1,"G002061002001010010","0",,"6",1112,1,"2007-10-19",2,
"G002061002001020","双城-双城站",2,0,"37.325159","109.315261",1172,1193,"37.323111","109.192558","G002061","2027-10-27",0,1,0,"G0020610020040","G0020610020030",800102,800103,"G002061002001020",80,1,"子靖高速",1,2,2,1,"G002061002001020010","0",,"6",1113,2,"2007-10-19",2,
"G002061002001110","杨桥畔站-杨桥畔",2,0,"37.323111","109.192558",1193,1225,"37.325159","108.595041","G002061","2027-10-27",0,1,0,"G0020610020040","G0020610020050",800102,800101,"G002061002001110",80,1,"子靖高速",1,2,2,1,"G002061002001110010","0",,"6",1114,1,"2007-10-19",2,
"G002061002001120","杨桥畔-杨桥畔站",2,0,"37.323111","109.192558",1193,1225,"37.325159","108.595041","G002061","2027-10-27",0,1,0,"G0020610020050","G0020610020040",800101,800102,"G002061002001120",80,1,"子靖高速",1,2,2,1,"G002061002001120010","0",,"6",1115,2,"2007-10-19",2,
"G002061003000110","靖边互通-靖边西匝道",2,5632,"37.634424","108.843812",1240.343,1245.975,"37.624741","108.782744","G002061","2025-10-27",0,1,0,,"G0020610030010",560105,570203,"G002061003000110",57,1,"靖王高速",1,1,1,1,"G002061003000110010","0","27006F","0",111,1,"2020-01-01",1,
"G002061003000120","靖边西匝道-靖边互通",2,5632,"37.624009","108.781481",1245.975,1240.343,"37.634424","108.843812","G002061","2025-10-27",0,1,0,"G0020610030010",,570203,560105,"G002061003000120",57,1,"靖王高速",1,1,1,1,"G002061003000120010","0","270070","0",112,2,"2020-01-01",1,
"G002061003000210","靖边西匝道-东坑匝道",2,19070,"37.623664","108.779486",1245.975,1265.045,"37.566195","108.580974","G002061","1899-12-29",0,1,0,"G0020610030010","G0020610030020",570203,570202,"G002061003000210",57,1,"靖王高速",1,1,1,1,"G002061003000210010","0","270071","0",113,1,"2020-01-01",1,
"G002061003000220","东坑匝道-靖边西匝道",2,19070,"37.566384","108.582693",1265.045,1245.975,"37.624009","108.781481","G002061","2025-10-27",0,1,0,"G0020610030020","G0020610030010",570202,570203,"G002061003000220",57,1,"靖王高速",1,1,1,1,"G002061003000220010","0","270072","0",114,2,"2020-01-01",1,
"G002061003000310","东坑匝道-梁镇匝道",2,18135,"37.566223","108.580981",1265.045,1283.18,"37.546410","108.385249","G002061","2025-10-27",0,1,0,"G0020610030020","G0020610030030",570202,570201,"G002061003000310",57,1,"靖王高速",1,1,1,1,"G002061003000310010","0","270073","0",115,1,"2020-01-01",1,
"G002061003000320","梁镇匝道-东坑匝道",2,18135,"37.546121","108.384983",1283.18,1265.045,"37.566384","108.582693","G002061","2025-10-27",0,1,0,"G0020610030030","G0020610030020",570201,570202,"G002061003000320",57,1,"靖王高速",1,1,1,1,"G002061003000320010","0","270074","0",116,2,"2020-01-01",1,
"G002061003000410","梁镇匝道-安边匝道",2,29148,"37.546410","108.385249",1283.18,1312.328,"37.536084","108.064658","G002061","2025-10-27",0,1,0,"G0020610030030","G0020610030040",570201,570104,"G002061003000410",57,1,"靖王高速",1,1,1,1,"G002061003000410010","0","270075","0",117,1,"2020-01-01",1,
"G002061003000420","安边匝道-梁镇匝道",2,29148,"37.535868","108.064503",1312.328,1283.18,"37.546121","108.384983","G002061","2025-10-27",0,1,0,"G0020610030040","G0020610030030",570104,570201,"G002061003000420",57,1,"靖王高速",1,1,1,1,"G002061003000420010","0","270076","0",118,2,"2020-01-01",1,
"G002061003000510","安边匝道-砖井匝道",2,21839,"37.536084","108.064658",1312.328,1334.167,"37.549848","107.821376","G002061","2025-10-27",0,1,0,"G0020610030040","G0020610030050",570104,570103,"G002061003000510",57,1,"靖王高速",1,1,1,1,"G002061003000510010","0","270077","0",119,1,"2020-01-01",1,
"G002061003000520","砖井匝道-安边匝道",2,21839,"37.549655","107.821104",1334.167,1312.328,"37.535868","108.064503","G002061","2025-10-27",0,1,0,"G0020610030050","G0020610030040",570103,570104,"G002061003000520",57,1,"靖王高速",1,1,1,1,"G002061003000520010","0","270078","0",120,2,"2020-01-01",1,
"G002061003000610","砖井匝道-石井子立交",2,10583,"37.549848","107.821376",1334.167,1344.75,"37.553550","107.702055","G002061","2025-10-27",2,1,0,"G0020610030050",,570103,9990725,"G002061003000610",57,1,"靖王高速",1,1,1,1,"G002061003000610010","0","270079","0",121,1,"2020-01-01",1,
"G002061003000620","石井子立交-砖井匝道",2,10583,"37.553308","107.702367",1344.75,1334.167,"37.549655","107.821104","G002061","2025-10-27",2,1,0,,"G0020610030050",9990725,570103,"G002061003000620",57,1,"靖王高速",1,1,1,1,"G002061003000620010","0","27007A","0",122,2,"2020-01-01",1,
"G002061003000710","石井子立交-定边匝道",2,13474,"37.553550","107.702055",1344.75,1358.224,"37.635704","107.595543","G002061","2025-10-27",2,1,0,,"G0020610030060",9990725,570102,"G002061003000710",57,1,"靖王高速",1,1,1,1,"G002061003000710010","0","27007B","0",123,1,"2020-01-01",1,
"G002061003000720","定边匝道-石井子立交",2,13474,"37.634769","107.595444",1358.224,1344.75,"37.553308","107.702367","G002061","2025-10-27",2,1,0,"G0020610030060",,570102,9990725,"G002061003000720",57,1,"靖王高速",1,1,1,1,"G002061003000720010","0","27007C","0",124,2,"2020-01-01",1,
"G002061003000810","定边匝道-王圈梁省界",2,13524,"37.635704","107.595543",1358.224,1371.724,"37.727042","107.503852","G002061","2025-10-27",1,1,0,"G0020610030060","G0020610030070",570102,570101,"G002061003000810",57,1,"靖王高速",1,1,1,1,"G002061003000810010","1","27007D","11",125,1,"2020-01-01",1,"G0020610030070"
"G002061003000820","王圈梁省界-定边匝道",2,13524,"37.726949","107.503641",1371.724,1358.224,"37.634769","107.595444","G002061","2025-10-27",1,1,0,"G0020610030070","G0020610030060",570101,570102,"G002061003000820",57,1,"靖王高速",1,1,1,1,"G002061003000820010","2","27007E","12",126,2,"2020-01-01",1,"G0020610030070"
"G002061003000910","靖边西站-靖边西",2,0,"37.634128","108.838583",1240.343,1245.975,"37.623459","108.776618","G002061","2025-10-27",0,1,0,,"G0020610030010",560105,570203,"G002061003000910",57,1,"靖王高速",1,1,1,1,"G002061003000910010","0",,"6",1116,1,"2020-01-01",2,
"G002061003000920","靖边西-靖边西站",2,0,"37.634128","108.838583",1240.343,1245.975,"37.623459","108.776618","G002061","2025-10-27",0,1,0,"G0020610030010",,570203,560105,"G002061003000920",57,1,"靖王高速",1,1,1,1,"G002061003000920010","0",,"6",1117,2,"2020-01-01",2,
"G002061003001010","东坑站-东坑",2,0,"37.623459","108.776618",1245.975,1265.045,"37.566182","108.578263","G002061","1899-12-29",0,1,0,"G0020610030010","G0020610030020",570203,570202,"G002061003001010",57,1,"靖王高速",1,1,1,1,"G002061003001010010","0",,"6",1118,1,"2020-01-01",2,
"G002061003001020","东坑-东坑站",2,0,"37.623459","108.776618",1245.975,1265.045,"37.566182","108.578263","G002061","2025-10-27",0,1,0,"G0020610030020","G0020610030010",570202,570203,"G002061003001020",57,1,"靖王高速",1,1,1,1,"G002061003001020010","0",,"6",1119,2,"2020-01-01",2,
"G002061003001110","梁镇站-梁镇",2,0,"37.566182","108.578263",1265.045,1283.18,"37.545501","108.379981","G002061","2025-10-27",0,1,0,"G0020610030020","G0020610030030",570202,570201,"G002061003001110",57,1,"靖王高速",1,1,1,1,"G002061003001110010","0",,"6",1120,1,"2020-01-01",2,
"G002061003001120","梁镇-梁镇站",2,0,"37.566182","108.578263",1265.045,1283.18,"37.545501","108.379981","G002061","2025-10-27",0,1,0,"G0020610030030","G0020610030020",570201,570202,"G002061003001120",57,1,"靖王高速",1,1,1,1,"G002061003001120010","0",,"6",1121,2,"2020-01-01",2,
"G002061003001210","安边站-安边",2,0,"37.545501","108.379981",1283.18,1312.328,"37.535101","108.059518","G002061","2025-10-27",0,1,0,"G0020610030030","G0020610030040",570201,570104,"G002061003001210",57,1,"靖王高速",1,1,1,1,"G002061003001210010","0",,"6",1122,1,"2020-01-01",2,
"G002061003001220","安边-安边站",2,0,"37.545501","108.379981",1283.18,1312.328,"37.535101","108.059518","G002061","2025-10-27",0,1,0,"G0020610030040","G0020610030030",570104,570201,"G002061003001220",57,1,"靖王高速",1,1,1,1,"G002061003001220010","0",,"6",1123,2,"2020-01-01",2,
"G002061003001310","砖井站-砖井",2,0,"37.535101","108.059518",1312.328,1334.167,"37.549138","107.816362","G002061","2025-10-27",0,1,0,"G0020610030040","G0020610030050",570104,570103,"G002061003001310",57,1,"靖王高速",1,1,1,1,"G002061003001310010","0",,"6",1124,1,"2020-01-01",2,
"G002061003001320","砖井-砖井站",2,0,"37.535101","108.059518",1312.328,1334.167,"37.549138","107.816362","G002061","2025-10-27",0,1,0,"G0020610030050","G0020610030040",570103,570104,"G002061003001320",57,1,"靖王高速",1,1,1,1,"G002061003001320010","0",,"6",1125,2,"2020-01-01",2,
"G002061003001410","定边站-定边",2,0,"37.552957","107.696999",1344.75,1358.224,"37.630560","107.590282","G002061","2025-10-27",0,1,0,,"G0020610030060",9990725,570102,"G002061003001410",57,1,"靖王高速",1,1,1,1,"G002061003001410010","0",,"6",1126,1,"2020-01-01",2,
"G002061003001420","定边-定边站",2,0,"37.552957","107.696999",1344.75,1358.224,"37.630560","107.590282","G002061","2025-10-27",0,1,0,"G0020610030060",,570102,9990725,"G002061003001420",57,1,"靖王高速",1,1,1,1,"G002061003001420010","0",,"6",1127,2,"2020-01-01",2,
"G002261001000110","陕西壶口省界-壶口匝道",2,3300,"36.048819","110.471986",1070,1073.3,"36.065401","110.456358","G002261","2030-11-09",1,1,0,"G0022610010010","G0022610010110",820101,820105,"G002261001000110",82,1,"青兰高速",1,3,3,1,"G002261001000110010","2","27007F","12",127,1,"2010-11-10",1,"G0022610010010"
"G002261001000120","壶口匝道-陕西壶口省界",2,3300,"36.065498","110.456326",1073.3,1070,"36.048487","110.472202","G002261","2030-11-09",1,1,0,"G0022610010110","G0022610010010",820105,820101,"G002261001000120",82,1,"青兰高速",1,3,3,1,"G002261001000120010","1","270080","11",128,2,"2010-11-10",1,"G0022610010010"
"G002261001000210","壶口匝道-秋林匝道",2,17900,"36.065401","110.456358",1073.3,1091.2,"36.082204","110.267955","G002261","2030-11-09",2,1,0,"G0022610010110","G0022610010020",820105,820102,"G002261001000210",82,1,"青兰高速",1,3,3,1,"G002261001000210010","0","270081","0",129,1,"2010-11-10",1,
"G002261001000220","秋林匝道-壶口匝道",2,17900,"36.082184","110.267805",1091.2,1073.3,"36.065283","110.456402","G002261","2030-11-09",2,1,0,"G0022610010020","G0022610010110",820102,820105,"G002261001000220",82,1,"青兰高速",1,3,3,1,"G002261001000220010","0","270082","0",130,2,"2010-11-10",1,
"G002261001000310","秋林匝道-阳湾枢纽立交",2,2800,"36.082204","110.267955",1091.2,1094,"36.011974","110.139846","G002261","2030-11-09",2,1,0,"G0022610010020","G0022610010030",820102,820103,"G002261001000310",82,1,"青兰高速",1,3,3,1,"G002261001000310010","0","270083","0",131,1,"2010-11-10",1,
"G002261001000320","阳湾枢纽立交-秋林匝道",2,2800,"36.012112","110.139593",1094,1091.2,"36.082184","110.267805","G002261","2030-11-09",2,1,0,"G0022610010030","G0022610010020",820103,820102,"G002261001000320",82,1,"青兰高速",1,3,3,1,"G002261001000320010","0","270084","0",132,2,"2010-11-10",1,
"G002261001000410","宜川匝道-铁龙湾枢纽立交",2,4100,"36.012057","110.139666",1106.9,1111,"35.974058","110.030134","G002261","2030-11-09",0,1,0,"G0022610010030","G0022610010040",820103,820104,"G002261001000410",82,1,"青兰高速",1,3,3,1,"G002261001000410010","0","270085","0",133,1,"2010-11-10",1,
"G002261001000420","铁龙湾枢纽立交-宜川匝道",2,4100,"35.973983","110.029866",1111,1106.9,"36.011853","110.139780","G002261","2030-11-09",0,1,0,"G0022610010040","G0022610010030",820104,820103,"G002261001000420",82,1,"青兰高速",1,3,3,1,"G002261001000420010","0","270086","0",134,2,"2010-11-10",1,
"G002261001000510","瓦子街匝道-榆树坪标示",2,22650,"35.974058","110.030134",1119,1141.65,"35.976087","109.825702","G002261","2030-11-09",0,1,0,"G0022610010040",,820104,0,"G002261001000510",82,1,"青兰高速",1,3,3,1,"G002261001000510010","0","270087","0",135,1,"2010-11-10",1,
"G002261001000520","榆树坪标示-瓦子街匝道",2,22650,"35.976087","109.825702",1141.65,1119,"35.974187","110.029999","G002261","2030-11-09",0,1,0,,"G0022610010040",0,820104,"G002261001000520",82,1,"青兰高速",1,3,3,1,"G002261001000520010","0","270088","0",136,2,"2010-11-10",1,
"G002261001000610","榆树坪标示-厢寺川匝道",2,19625,"35.975665","109.833721",1141.65,1161.275,"35.956245","109.622972","G002261","2030-11-09",0,1,0,,"G0022610010050",0,820202,"G002261001000610",82,1,"青兰高速",1,3,3,1,"G002261001000610010","0","270089","0",137,1,"2010-11-10",1,
"G002261001000620","厢寺川匝道-榆树坪标示",2,19625,"35.955976","109.622962",1161.275,1141.65,"35.975537","109.833761","G002261","2030-11-09",0,1,0,"G0022610010050",,820202,0,"G002261001000620",82,1,"青兰高速",1,3,3,1,"G002261001000620010","0","27008A","0",138,2,"2010-11-10",1,
"G002261001000710","厢寺川匝道-厢西堡立交",2,14850,"35.956245","109.622972",1161.275,1176.125,"35.916270","109.479075","G002261","2030-11-09",0,1,0,"G0022610010050",,820202,0,"G002261001000710",82,1,"青兰高速",1,3,3,1,"G002261001000710010","0","27008B","0",139,1,"2010-11-10",1,
"G002261001000720","厢西堡立交-厢寺川匝道",2,14850,"35.916021","109.478691",1176.125,1161.275,"35.955976","109.622962","G002261","2030-11-09",0,1,0,,"G0022610010050",0,820202,"G002261001000720",82,1,"青兰高速",1,3,3,1,"G002261001000720010","0","27008C","0",140,2,"2010-11-10",1,
"G002261001000810","厢西堡立交-富县南匝道",2,10605,"35.916270","109.479075",1176.125,1186.73,"35.930153","109.376627","G002261","2030-11-09",0,1,0,,"G0022610010060",0,820203,"G002261001000810",82,1,"青兰高速",1,3,3,1,"G002261001000810010","0","27008D","0",141,1,"2010-11-10",1,
"G002261001000820","富县南匝道-厢西堡立交",2,10605,"35.930000","109.376888",1186.73,1176.125,"35.916021","109.478691","G002261","2030-11-09",0,1,0,"G0022610010060",,820203,0,"G002261001000820",82,1,"青兰高速",1,3,3,1,"G002261001000820010","0","27008E","0",142,2,"2010-11-10",1,
"G002261001000910","富县南匝道-龙头河立交",2,16600,"35.930135","109.376385",1186.73,1203.33,"35.902761","109.217290","G002261","2030-11-09",0,1,0,"G0022610010060",,820203,0,"G002261001000910",82,1,"青兰高速",1,3,3,1,"G002261001000910010","0","27008F","0",143,1,"2010-11-10",1,
"G002261001000920","龙头河立交-富县南匝道",2,16600,"35.902540","109.217386",1203.33,1186.73,"35.930000","109.376888","G002261","2030-11-09",0,1,0,,"G0022610010060",0,820203,"G002261001000920",82,1,"青兰高速",1,3,3,1,"G002261001000920010","0","270090","0",144,2,"2010-11-10",1,
"G002261001001010","龙头河立交-张村驿匝道",2,5180,"35.902717","109.217421",1203.33,1208.51,"35.890358","109.156864","G002261","2030-11-09",0,1,0,,"G0022610010070",0,820204,"G002261001001010",82,1,"青兰高速",1,3,3,1,"G002261001001010010","0","270091","0",145,1,"2010-11-10",1,
"G002261001001020","张村驿匝道-龙头河立交",2,5180,"35.890897","109.157660",1208.51,1202.8,"35.902540","109.217386","G002261","2030-11-09",0,1,0,"G0022610010070",,820204,0,"G002261001001020",82,1,"青兰高速",1,3,3,1,"G002261001001020010","0","270092","0",146,2,"2010-11-10",1,
"G002261001001110","张村驿匝道-直罗匝道",2,18060,"35.890624","109.157731",1208.51,1226.57,"35.963125","109.010219","G002261","2030-11-09",2,1,0,"G0022610010070","G0022610010080",820204,820301,"G002261001001110",82,1,"青兰高速",1,3,3,1,"G002261001001110010","0","270093","0",147,1,"2010-11-10",1,
"G002261001001120","直罗匝道-张村驿匝道",2,18060,"35.962826","109.010539",1226.57,1208.51,"35.890624","109.157731","G002261","2030-11-09",2,1,0,"G0022610010080","G0022610010070",820301,820204,"G002261001001120",82,1,"青兰高速",1,3,3,1,"G002261001001120010","0","270094","0",148,2,"2010-11-10",1,
"G002261001001210","直罗匝道-张家湾匝道",2,26560,"35.963204","109.009822",1226.57,1253.13,"36.079759","108.791152","G002261","2030-11-09",2,1,0,"G0022610010080","G0022610010090",820301,820302,"G002261001001210",82,1,"青兰高速",1,3,3,1,"G002261001001210010","0","270095","0",149,1,"2010-11-10",1,
"G002261001001220","张家湾匝道-直罗匝道",2,26560,"36.079603","108.790892",1253.13,1226.57,"35.962826","109.010539","G002261","2030-11-09",2,1,0,"G0022610010090","G0022610010080",820302,820301,"G002261001001220",82,1,"青兰高速",1,3,3,1,"G002261001001220010","0","270096","0",150,2,"2010-11-10",1,
"G002261001001310","张家湾匝道-陕西富县省界",2,8981,"36.079814","108.791079",1253.13,1262.111,"36.107414","108.709087","G002261","2030-11-09",1,1,0,"G0022610010090","G0022610010100",820302,820303,"G002261001001310",82,1,"青兰高速",1,3,3,1,"G002261001001310010","1","270097","11",151,1,"2010-11-10",1,"G0022610010100"
"G002261001001320","陕西富县省界-张家湾匝道",2,8981,"36.107414","108.709087",1262.111,1253.13,"36.079603","108.790892","G002261","2030-11-09",1,1,0,"G0022610010100","G0022610010090",820303,820302,"G002261001001320",82,1,"青兰高速",1,3,3,1,"G002261001001320010","2","270098","12",152,2,"2010-11-10",1,"G0022610010100"
"G002261001001410","壶口站-壶口",2,0,"36.048333","110.477222",1070,1073.3,"36.068333","110.454166","G002261","2030-11-09",0,1,0,"G0022610010010","G0022610010110",820101,820105,"G002261001001410",82,1,"青兰高速",1,3,3,1,"G002261001001410010","0",,"6",1144,1,"2010-11-10",2,
"G002261001001420","壶口-壶口站",2,0,"36.048333","110.477222",1073.3,1070,"36.068333","110.454166","G002261","2030-11-09",0,1,0,"G0022610010110","G0022610010010",820105,820101,"G002261001001420",82,1,"青兰高速",1,3,3,1,"G002261001001420010","0",,"6",1145,2,"2010-11-10",2,
"G002261001001510","秋林站-秋林",2,0,"36.068333","110.454166",1073.3,1091.1,"36.079444","110.275555","G002261","2030-11-09",0,1,0,"G0022610010110","G0022610010020",820105,820102,"G002261001001510",82,1,"青兰高速",1,3,3,1,"G002261001001510010","0",,"6",1128,1,"2010-11-10",2,
"G002261001001520","秋林-秋林站",2,0,"36.068333","110.454166",1091.1,1073.3,"36.079444","110.275555","G002261","2030-11-09",0,1,0,"G0022610010020","G0022610010110",820102,820105,"G002261001001520",82,1,"青兰高速",1,3,3,1,"G002261001001520010","0",,"6",1129,2,"2010-11-10",2,
"G002261001001610","宜川站-宜川",2,0,"36.079444","110.275555",1091.1,1106.5,"36.011388","110.146666","G002261","2030-11-09",0,1,0,"G0022610010020","G0022610010030",820102,820103,"G002261001001610",82,1,"青兰高速",1,3,3,1,"G002261001001610010","0",,"6",1130,1,"2010-11-10",2,
"G002261001001620","宜川-宜川站",2,0,"36.079444","110.275555",1106.5,1091.1,"36.011388","110.146666","G002261","2030-11-09",0,1,0,"G0022610010030","G0022610010020",820103,820102,"G002261001001620",82,1,"青兰高速",1,3,3,1,"G002261001001620010","0",,"6",1131,2,"2010-11-10",2,
"G002261001001710","瓦子街站-瓦子街",2,0,"36.011388","110.146666",1106.5,1119.3,"35.975000","110.034722","G002261","2030-11-09",0,1,0,"G0022610010030","G0022610010040",820103,820104,"G002261001001710",82,1,"青兰高速",1,3,3,1,"G002261001001710010","0",,"6",1132,1,"2010-11-10",2,
"G002261001001720","瓦子街-瓦子街站",2,0,"36.011388","110.146666",1119.3,1106.5,"35.975000","110.034722","G002261","2030-11-09",0,1,0,"G0022610010040","G0022610010030",820104,820103,"G002261001001720",82,1,"青兰高速",1,3,3,1,"G002261001001720010","0",,"6",1133,2,"2010-11-10",2,
"G002261001001810","厢寺川站-厢寺川",2,0,"35.975845","109.824218",1141.19,1161.275,"35.956492","109.617297","G002261","2030-11-09",0,1,0,"0","G0022610010050",0,820202,"G002261001001810",82,1,"青兰高速",1,3,3,1,"G002261001001810010","0",,"6",1134,1,"2010-11-10",2,
"G002261001001820","厢寺川-厢寺川站",2,0,"35.956492","109.617297",1161.275,1141.19,"35.975845","109.824218","G002261","2030-11-09",0,1,0,"G0022610010050","0",820202,0,"G002261001001820",82,1,"青兰高速",1,3,3,1,"G002261001001820010","0",,"6",1135,2,"2010-11-10",2,
"G002261001001910","富县南站-富县南",2,0,"35.916403","109.473387",1176.125,1186.73,"35.930182","109.370544","G002261","2030-11-09",0,1,0,,"G0022610010060",0,820203,"G002261001001910",82,1,"青兰高速",1,3,3,1,"G002261001001910010","0",,"6",1136,1,"2010-11-10",2,
"G002261001001920","富县南-富县南站",2,0,"35.930182","109.370544",1186.73,1176.125,"35.916403","109.473387","G002261","2030-11-09",0,1,0,"G0022610010060",,820203,0,"G002261001001920",82,1,"青兰高速",1,3,3,1,"G002261001001920010","0",,"6",1137,2,"2010-11-10",2,
"G002261001002010","张村驿站-张村驿",2,0,"35.902752","109.213258",1202.8,1208.51,"35.887993","109.146221","G002261","2030-11-09",0,1,0,,"G0022610010070",0,820204,"G002261001002010",82,1,"青兰高速",1,3,3,1,"G002261001002010010","0",,"6",1138,1,"2010-11-10",2,
"G002261001002020","张村驿-张村驿站",2,0,"35.887993","109.146221",1208.51,1202.8,"35.902752","109.213258","G002261","2030-11-09",0,1,0,"G0022610010070",,820204,0,"G002261001002020",82,1,"青兰高速",1,3,3,1,"G002261001002020010","0",,"6",1139,2,"2010-11-10",2,
"G002261001002110","直罗站-直罗",2,0,"35.887993","109.146221",1208.51,1226.57,"35.963333","109.003610","G002261","2030-11-09",0,1,0,"G0022610010070","G0022610010080",820204,820301,"G002261001002110",82,1,"青兰高速",1,3,3,1,"G002261001002110010","0",,"6",1140,1,"2010-11-10",2,
"G002261001002120","直罗-直罗站",2,0,"35.887993","109.146221",1226.57,1208.51,"35.963333","109.003610","G002261","2030-11-09",0,1,0,"G0022610010080","G0022610010070",820301,820204,"G002261001002120",82,1,"青兰高速",1,3,3,1,"G002261001002120010","0",,"6",1141,2,"2010-11-10",2,
"G002261001002210","张家湾站-张家湾",2,0,"35.963333","109.003610",1226.57,1253.13,"36.079444","108.709270","G002261","2030-11-09",0,1,0,"G0022610010080","G0022610010090",820301,820302,"G002261001002210",82,1,"青兰高速",1,3,3,1,"G002261001002210010","0",,"6",1142,1,"2010-11-10",2,
"G002261001002220","张家湾-张家湾站",2,0,"35.963333","109.003610",1253.13,1226.57,"36.079444","108.709270","G002261","2030-11-09",0,1,0,"G0022610010090","G0022610010080",820302,820301,"G002261001002220",82,1,"青兰高速",1,3,3,1,"G002261001002220010","0",,"6",1143,2,"2010-11-10",2,
"G002261001002310","阳湾枢纽立交-宜川匝道",2,12900,"35.647205","110.586035",1094,1106.9,"35.647202","109.788470","G002261","2030-11-09",0,1,0,,,0,0,"G002261001002310",82,1,"青兰高速",1,3,3,1,"G002261001002310010",,,"0",,1,"2010-11-10",1,
"G002261001002320","宜川匝道-阳湾枢纽立交",2,12900,"35.647205","110.586035",1106.9,1094,"35.647202","109.788470","G002261","2030-11-09",0,1,0,,,0,0,"G002261001002320",82,1,"青兰高速",1,3,3,1,"G002261001002320010",,,"0",,2,"2010-11-10",1,
"G002261001002410","铁龙湾枢纽立交-瓦子街匝道",2,8000,"35.647205","110.586035",1111,1119,"35.647202","109.788470","G002261","2030-11-09",0,1,0,,,0,0,"G002261001002410",82,1,"青兰高速",1,3,3,1,"G002261001002410010",,,"0",,1,"2010-11-10",1,
"G002261001002420","瓦子街匝道-铁龙湾枢纽立交",2,8000,"35.647205","110.586035",1119,1111,"35.647202","109.788470","G002261","2030-11-09",0,1,0,,,0,0,"G002261001002420",82,1,"青兰高速",1,3,3,1,"G002261001002420010",,,"0",,2,"2010-11-10",1,
"G003061001000110","潼关省界收费站-秦东匝道",2,4700,"34.572373","110.369144",902,906.7,"34.581734","110.357422","G003061|Z000161","2030-11-29",1,1,0,"G0030610010010","G0030610010020",20205,20204,"G003061001000110",2,1,"西渭高速",1,3,3,1,"G003061001000110010","2","270099","12",153,1,"2001-12-25",1,"G0030610010010"
"G003061001000120","秦东匝道-潼关省界收费站",2,4700,"34.602771","110.305940",906.7,902,"34.572373","110.369144","G003061|Z000161","2030-11-29",1,1,0,"G0030610010020","G0030610010010",20204,20205,"G003061001000120",2,1,"西渭高速",1,3,3,1,"G003061001000120010","1","27009A","11",154,2,"2001-12-25",1,"G0030610010010"
"G003061001000210","秦东匝道-港口匝道",2,4550,"34.581734","110.357422",906.7,911.25,"34.605216","110.282702","G003061|Z000161","2030-11-29",2,1,0,"G0030610010020","G0030610010030",20204,20203,"G003061001000210",2,1,"西渭高速",1,3,3,1,"G003061001000210010","0","27009B","0",155,1,"2001-12-25",1,
"G003061001000220","港口匝道-秦东匝道",2,4550,"34.606662","110.258366",911.25,906.7,"34.602771","110.305940","G003061|Z000161","2030-11-29",2,1,0,"G0030610010030","G0030610010020",20203,20204,"G003061001000220",2,1,"西渭高速",1,3,3,1,"G003061001000220010","0","27009C","0",156,2,"2001-12-25",1,
"G003061001000310","港口匝道-华阴匝道",2,20400,"34.605216","110.282702",911.25,931.65,"34.547584","110.097189","G003061|Z000161","2030-11-29",2,1,0,"G0030610010030","G0030610010040",20203,20202,"G003061001000310",2,1,"西渭高速",1,3,3,1,"G003061001000310010","0","27009D","0",157,1,"2001-12-25",1,
"G003061001000320","华阴匝道-港口匝道",2,20400,"34.546173","110.094881",931.65,911.25,"34.606662","110.258366","G003061|Z000161","2030-11-29",2,1,0,"G0030610010040","G0030610010030",20202,20203,"G003061001000320",2,1,"西渭高速",1,3,3,1,"G003061001000320010","0","27009E","0",158,2,"2001-12-25",1,
"G003061001000410","华阴匝道-罗敷匝道",2,13800,"34.547584","110.097189",931.65,945.45,"34.542411","109.949484","G003061|Z000161","2030-11-29",0,1,0,"G0030610010040","G0030610010050",20202,20201,"G003061001000410",2,1,"西渭高速",1,3,3,1,"G003061001000410010","0","27009F","0",159,1,"2001-12-25",1,
"G003061001000420","罗敷匝道-华阴匝道",2,13800,"34.541346","109.948133",945.45,931.65,"34.546173","110.094881","G003061|Z000161","2030-11-29",0,1,0,"G0030610010050","G0030610010040",20201,20202,"G003061001000420",2,1,"西渭高速",1,3,3,1,"G003061001000420010","0","2700A0","0",160,2,"2001-12-25",1,
"G003061001000510","罗敷匝道-华州匝道",2,18100,"34.542411","109.949484",945.45,963.55,"34.500624","109.763427","G003061|Z000161","2030-11-29",0,1,0,"G0030610010050","G0030610010060",20201,20106,"G003061001000510",2,1,"西渭高速",1,3,3,1,"G003061001000510010","0","2700A1","0",161,1,"2001-12-25",1,
"G003061001000520","华州匝道-罗敷匝道",2,18100,"34.500224","109.763663",963.55,945.45,"34.541346","109.948133","G003061|Z000161","2030-11-29",0,1,0,"G0030610010060","G0030610010050",20106,20201,"G003061001000520",2,1,"西渭高速",1,3,3,1,"G003061001000520010","0","2700A2","0",162,2,"2001-12-25",1,
"G003061001000610","华州匝道-华州西匝道",2,6350,"34.500624","109.763427",963.55,969.9,"34.496795","109.695028","G003061|Z000161","2030-11-29",0,1,0,"G0030610010060","G0030610010070",20106,20105,"G003061001000610",2,1,"西渭高速",1,3,3,1,"G003061001000610010","0","2700A3","0",163,1,"2001-12-25",1,
"G003061001000620","华州西匝道-华州匝道",2,6350,"34.496388","109.695041",969.9,963.55,"34.500224","109.763663","G003061|Z000161","2030-11-29",0,1,0,"G0030610010070","G0030610010060",20105,20106,"G003061001000620",2,1,"西渭高速",1,3,3,1,"G003061001000620010","0","2700A4","0",164,2,"2001-12-25",1,
"G003061001000710","华州西匝道-赤水互通式立交",2,4000,"34.496795","109.695028",969.9,973.9,"34.498499","109.651759","G003061|Z000161","2030-11-29",0,1,0,"G0030610010070",,20105,9990208,"G003061001000710",2,1,"西渭高速",1,3,3,1,"G003061001000710010","0","2700A5","0",165,1,"2001-12-25",1,
"G003061001000720","赤水互通式立交-华州西匝道",2,4000,"34.499106","109.644133",973.9,969.9,"34.496388","109.695041","G003061|Z000161","2030-11-29",0,1,0,,"G0030610010070",9990208,20105,"G003061001000720",2,1,"西渭高速",1,3,3,1,"G003061001000720010","0","2700A6","0",166,2,"2001-12-25",1,
"G003061001000810","赤水互通式立交-零口互通式立交",2,26700,"34.498151","109.651706",973.9,1000.6,"34.487852","109.539241","G003061|Z000161","2030-11-29",0,1,0,,,9990208,9900621,"G003061001000810",2,1,"西渭高速",1,3,3,1,"G003061001000810010","0","2700A7","0",167,1,"2001-12-25",1,
"G003061001000820","零口互通式立交-赤水互通式立交",2,26700,"34.487852","109.539241",1000.6,973.9,"34.499106","109.644133","G003061|Z000161","2030-11-29",0,1,0,,,9900621,9990208,"G003061001000820",2,1,"西渭高速",1,3,3,1,"G003061001000820010","0","2700A8","0",168,2,"2001-12-25",1,
"G003061001000910","赤水互通式立交-渭南东匝道",2,10590,"34.498499","109.651759",973.9,1.97,"34.489584","109.538121","G003061|Z000161","2030-11-29",0,1,0,,"G0030610010080",9990208,20104,"G003061001000910",2,1,"西渭高速",1,3,3,1,"G003061001000910010","0","2700A9","0",169,1,"2001-12-25",1,
"G003061001000920","渭南东匝道-赤水互通式立交",2,10590,"34.489493","109.539277",1.97,973.9,"34.498151","109.651706","G003061|Z000161","2030-11-29",0,1,0,"G0030610010080",,20104,9990208,"G003061001000920",2,1,"西渭高速",1,3,3,1,"G003061001000920010","0","2700AA","0",170,2,"2001-12-25",1,
"G003061001001010","渭南东匝道-渭南西匝道",2,7445,"34.489584","109.538121",1.97,9.415,"34.487735","109.457331","G003061|Z000161","2030-11-29",0,1,0,,,0,0,"G003061001001010",2,1,"西渭高速",1,3,3,1,"G003061001001010010","0","2700AB","0",171,1,"2001-12-25",1,
"G003061001001020","渭南西匝道-渭南东匝道",2,7445,"34.484725","109.444576",9.415,1.97,"34.489493","109.539277","G003061|Z000161","2030-11-29",0,1,0,,,0,0,"G003061001001020",2,1,"西渭高速",1,3,3,1,"G003061001001020010","0","2700AC","0",172,2,"2001-12-25",1,
"G003061001001110","渭南西匝道-零口互通式立交",2,7824,"34.487735","109.457331",9.415,1000.6,"34.481405","109.372243","G003061|Z000161","2030-11-29",0,1,0,,,0,0,"G003061001001110",2,1,"西渭高速",1,3,3,1,"G003061001001110010","0","2700AD","0",173,1,"2001-12-25",1,
"G003061001001120","零口互通式立交-渭南西匝道",2,7824,"34.480964","109.372167",1000.6,9.415,"34.484725","109.444576","G003061|Z000161","2030-11-29",0,1,0,,,0,0,"G003061001001120",2,1,"西渭高速",1,3,3,1,"G003061001001120010","0","2700AE","0",174,2,"2001-12-25",1,
"G003061001001210","零口互通式立交-新丰匝道",2,11665,"34.481300","109.372245",1000.6,1012.265,"34.432520","109.260244","G003061|Z000161","2030-11-29",0,1,0,,"G0030610010100",9900621,20102,"G003061001001210",2,1,"西渭高速",1,3,3,1,"G003061001001210010","0","2700AF","0",175,1,"2001-12-25",1,
"G003061001001220","新丰匝道-零口互通式立交",2,11665,"34.432136","109.260580",1012.265,1000.6,"34.480964","109.372167","G003061|Z000161","2030-11-29",0,1,0,"G0030610010100",,20102,9900621,"G003061001001220",2,1,"西渭高速",1,3,3,1,"G003061001001220010","0","2700B0","0",176,2,"2001-12-25",1,
"G003061001001310","新丰匝道-兵马俑匝道",2,4695,"34.432520","109.260244",1012.265,1016.96,"34.410599","109.233286","G003061|Z000161","2030-11-29",0,1,0,"G0030610010100","G0030610010110",20102,20101,"G003061001001310",2,1,"西渭高速",1,3,3,1,"G003061001001310010","0","2700B1","0",177,1,"2001-12-25",1,
"G003061001001320","兵马俑匝道-新丰匝道",2,4695,"34.399797","109.213353",1016.96,1012.265,"34.432136","109.260580","G003061|Z000161","2030-11-29",0,1,0,"G0030610010110","G0030610010100",20101,20102,"G003061001001320",2,1,"西渭高速",1,3,3,1,"G003061001001320010","0","2700B2","0",178,2,"2001-12-25",1,
"G003061001001410","兵马俑匝道-兵马俑立交",2,6016,"34.405491","109.233283",0,6.016,"34.390660","109.284162","G003061|Z000161","2030-11-29",0,1,0,"G0030610010110","G0030610010110",20101,20101,"G003061001001410",2,2,"西渭兵马俑段",1,3,3,1,"G003061001001410010","0","2700B3","2",179,1,"2001-12-25",2,
"G003061001001420","兵马俑立交-兵马俑匝道",2,6016,"34.390660","109.284162",6.016,0,"34.405528","109.233505","G003061|Z000161","2030-11-29",0,1,0,"G0030610010110","G0030610010110",20101,20101,"G003061001001420",2,2,"西渭兵马俑段",1,3,3,1,"G003061001001420010","0","2700B4","2",180,2,"2001-12-25",2,
"G003061001001510","秦东站-秦东",2,0,"34.573934","110.362578",902,906.7,"34.573934","110.362578","G003061|Z000161","2030-11-29",0,1,0,"G0030610010010","G0030610010020",20205,20204,"G003061001001510",2,1,"西渭高速",1,3,3,1,"G003061001001510010","0",,"6",1146,1,"2001-12-25",2,
"G003061001001520","秦东-秦东站",2,0,"34.573934","110.362578",906.7,902,"34.573934","110.362578","G003061|Z000161","2030-11-29",0,1,0,"G0030610010020","G0030610010010",20204,20205,"G003061001001520",2,1,"西渭高速",1,3,3,1,"G003061001001520010","0",,"6",1147,2,"2001-12-25",2,
"G003061001001610","港口站-港口",2,0,"34.599244","110.325588",906.7,911.25,"34.604384","110.278010","G003061|Z000161","2030-11-29",0,1,0,"G0030610010020","G0030610010030",20204,20203,"G003061001001610",2,1,"西渭高速",1,3,3,1,"G003061001001610010","0",,"6",1148,1,"2001-12-25",2,
"G003061001001620","港口-港口站",2,0,"34.604384","110.278010",911.25,906.7,"34.599244","110.325588","G003061|Z000161","2030-11-29",0,1,0,"G0030610010030","G0030610010020",20203,20204,"G003061001001620",2,1,"西渭高速",1,3,3,1,"G003061001001620010","0",,"6",1149,2,"2001-12-25",2,
"G003061001001710","华阴站-华阴",2,0,"34.604384","110.278010",911.25,931.65,"34.549411","110.091107","G003061|Z000161","2030-11-29",0,1,0,"G0030610010030","G0030610010040",20203,20202,"G003061001001710",2,1,"西渭高速",1,3,3,1,"G003061001001710010","0",,"6",1150,1,"2001-12-25",2,
"G003061001001720","华阴-华阴站",2,0,"34.549411","110.091107",931.65,911.25,"34.604384","110.278010","G003061|Z000161","2030-11-29",0,1,0,"G0030610010040","G0030610010030",20202,20203,"G003061001001720",2,1,"西渭高速",1,3,3,1,"G003061001001720010","0",,"6",1151,2,"2001-12-25",2,
"G003061001001810","罗敷站-罗敷",2,0,"34.549411","110.091107",931.65,945.45,"34.540873","109.944478","G003061|Z000161","2030-11-29",0,1,0,"G0030610010040","G0030610010050",20202,20201,"G003061001001810",2,1,"西渭高速",1,3,3,1,"G003061001001810010","0",,"6",1152,1,"2001-12-25",2,
"G003061001001820","罗敷-罗敷站",2,0,"34.540873","109.944478",945.45,931.65,"34.549411","110.091107","G003061|Z000161","2030-11-29",0,1,0,"G0030610010050","G0030610010040",20201,20202,"G003061001001820",2,1,"西渭高速",1,3,3,1,"G003061001001820010","0",,"6",1153,2,"2001-12-25",2,
"G003061001001910","华州站-华州",2,0,"34.540873","109.944478",945.45,963.55,"34.499545","109.760288","G003061|Z000161","2030-11-29",0,1,0,"G0030610010050","G0030610010060",20201,20106,"G003061001001910",2,1,"西渭高速",1,3,3,1,"G003061001001910010","0",,"6",1154,1,"2001-12-25",2,
"G003061001001920","华州-华州站",2,0,"34.499545","109.760288",963.55,945.45,"34.540873","109.944478","G003061|Z000161","2030-11-29",0,1,0,"G0030610010060","G0030610010050",20106,20201,"G003061001001920",2,1,"西渭高速",1,3,3,1,"G003061001001920010","0",,"6",1155,2,"2001-12-25",2,
"G003061001002010","华州西站-华州西",2,0,"34.499545","109.760288",963.55,969.9,"34.494740","109.687103","G003061|Z000161","2030-11-29",0,1,0,"G0030610010060","G0030610010070",20106,20105,"G003061001002010",2,1,"西渭高速",1,3,3,1,"G003061001002010010","0",,"6",1156,1,"2001-12-25",2,
"G003061001002020","华州西-华州西站",2,0,"34.494740","109.687130",969.9,963.55,"34.499545","109.760288","G003061|Z000161","2030-11-29",0,1,0,"G0030610010070","G0030610010060",20105,20106,"G003061001002020",2,1,"西渭高速",1,3,3,1,"G003061001002020010","0",,"6",1157,2,"2001-12-25",2,
"G003061001002110","渭南东站-渭南东",2,0,"34.493570","109.550977",973.9,1.97,"34.492792","109.531830","G003061|Z000161","2030-11-29",0,1,0,,"G0030610010080",9990208,20104,"G003061001002110",2,1,"西渭高速",1,3,3,1,"G003061001002110010","0",,"6",1158,1,"2001-12-25",2,
"G003061001002120","渭南东-渭南东站",2,0,"34.492792","109.531830",1.97,973.9,"34.493570","109.550977","G003061|Z000161","2030-11-29",0,1,0,"G0030610010080",,20104,9990208,"G003061001002120",2,1,"西渭高速",1,3,3,1,"G003061001002120010","0",,"6",1159,2,"2001-12-25",2,
"G003061001002210","渭南西站-渭南西",2,0,"34.492792","109.531830",1.97,9.415,"34.491338","109.452582","G003061|Z000161","2030-11-29",0,1,0,,,0,0,"G003061001002210",2,1,"西渭高速",1,3,3,1,"G003061001002210010","0",,"6",1160,1,"2001-12-25",2,
"G003061001002220","渭南西-渭南西站",2,0,"34.491338","109.452582",9.415,1.97,"34.492792","109.531830","G003061|Z000161","2030-11-29",0,1,0,,,0,0,"G003061001002220",2,1,"西渭高速",1,3,3,1,"G003061001002220010","0",,"6",1161,2,"2001-12-25",2,
"G003061001002310","新丰站-新丰",2,0,"34.481616","109.364413",1000.6,1012.265,"34.432355","109.257735","G003061|Z000161","2030-11-29",0,1,0,,"G0030610010100",9900621,20102,"G003061001002310",2,1,"西渭高速",1,3,3,1,"G003061001002310010","0",,"6",1162,1,"2001-12-25",2,
"G003061001002320","新丰-新丰站",2,0,"34.432355","109.257735",1012.265,1000.6,"34.481616","109.364413","G003061|Z000161","2030-11-29",0,1,0,"G0030610010100",,20102,9900621,"G003061001002320",2,1,"西渭高速",1,3,3,1,"G003061001002320010","0",,"6",1163,2,"2001-12-25",2,
"G003061002000110","兵马俑匝道-临潼匝道",2,7215,"34.404313","109.222164",1016.96,1024.175,"34.359601","109.167367","G003061|S031161","2030-11-29",0,1,0,"G0030610010110","G0030610020010",20101,10003,"G003061002000110",1,1,"西临高速",1,2,2,1,"G003061002000110010","0","2700B5","0",181,1,"1990-12-28",1,
"G003061002000120","临潼匝道-兵马俑匝道",2,7215,"34.359049","109.167303",1024.175,1016.96,"34.404043","109.222816","G003061|S031161","2030-11-29",0,1,0,"G0030610020010","G0030610010110",10003,20101,"G003061002000120",1,1,"西临高速",1,2,2,1,"G003061002000120010","0","2700B6","0",182,2,"1990-12-28",1,
"G003061002000210","临潼匝道-豁口匝道",2,6437,"34.359601","109.167367",1024.175,1030.612,"34.321990","109.113924","G003061|S031161","2030-11-29",0,1,0,"G0030610020010","G0030610020020",10003,10002,"G003061002000210",1,1,"西临高速",1,2,2,1,"G003061002000210010","0","2700B7","0",183,1,"1990-12-28",1,
"G003061002000220","豁口匝道-临潼匝道",2,6437,"34.323739","109.115875",1030.612,1024.175,"34.359049","109.167303","G003061|S031161","2030-11-29",0,1,0,"G0030610020020","G0030610020010",10002,10003,"G003061002000220",1,1,"西临高速",1,2,2,1,"G003061002000220010","0","2700B8","0",184,2,"1990-12-28",1,
"G003061002000310","豁口匝道-方家村互通式立交",2,2130,"34.321990","109.113924",1030.612,1032.742,"34.312586","109.094209","G003061|S031161","2030-11-29",0,1,0,"G0030610020020",,10002,9990104,"G003061002000310",1,1,"西临高速",1,2,2,1,"G003061002000310010","0","2700B9","0",185,1,"1990-12-28",1,
"G003061002000320","方家村互通式立交-豁口匝道",2,2130,"34.312445","109.094415",1032.742,1030.612,"34.323739","109.115875","G003061|S031161","2030-11-29",0,1,0,,"G0030610020020",9990104,10002,"G003061002000320",1,1,"西临高速",1,2,2,1,"G003061002000320010","0","2700BA","0",186,2,"1990-12-28",1,
"G003061002000410","方家村互通式立交-灞桥主线",2,2200,"34.312586","109.094209",1032.742,4.109,"34.295876","109.055391","G003061|S031161","2030-11-29",0,1,0,,"G0030610020030",9990104,10001,"G003061002000410",1,1,"西临高速",1,2,2,1,"G003061002000410010","0","2700BB","2",187,1,"1990-12-28",2,
"G003061002000420","灞桥主线-方家村互通式立交",2,2200,"34.295697","109.055184",4.109,1032.742,"34.312445","109.094415","G003061|S031161","2030-11-29",0,1,0,"G0030610020030",,10001,9990104,"G003061002000420",1,1,"西临高速",1,2,2,1,"G003061002000420010","0","2700BC","2",188,2,"1990-12-28",2,
"G003061002000510","临潼站-临潼",2,0,"34.405298","109.217586",1016.96,1024.175,"34.362863","109.158265","G003061|S031161","2030-11-29",0,1,0,"G0030610010110","G0030610020010",20101,10003,"G003061002000510",1,1,"西临高速",1,2,2,1,"G003061002000510010","0",,"6",1164,1,"1990-12-28",2,
"G003061002000520","临潼-临潼站",2,0,"34.362863","109.158265",1024.175,1016.96,"34.405298","109.217586","G003061|S031161","2030-11-29",0,1,0,"G0030610020010","G0030610010110",10003,20101,"G003061002000520",1,1,"西临高速",1,2,2,1,"G003061002000520010","0",,"6",1165,2,"1990-12-28",2,
"G003061002000610","豁口站-豁口",2,0,"34.362863","109.158265",1024.175,1030.612,"34.324185","109.108000","G003061|S031161","2030-11-29",0,1,0,"G0030610020010","G0030610020020",10003,10002,"G003061002000610",1,1,"西临高速",1,2,2,1,"G003061002000610010","0",,"6",1166,1,"1990-12-28",2,
"G003061002000620","豁口-豁口站",2,0,"34.324185","109.108000",1030.612,1024.175,"34.362863","109.158265","G003061|S031161","2030-11-29",0,1,0,"G0030610020020","G0030610020010",10002,10003,"G003061002000620",1,1,"西临高速",1,2,2,1,"G003061002000620010","0",,"6",1167,2,"1990-12-28",2,
"G003061003000110","阿房宫立交-咸阳南",2,12428,"34.252548","108.806361",1071.592,1084.02,"34.251265","108.676184","G003061","2025-12-19",0,1,0,,"G0030610030020",9900010,30402,"G003061003000110",3,4,"西宝咸阳环线",1,3,3,1,"G003061003000110010","0","2700BD","0",189,1,"1995-12-20",1,
"G003061003000120","咸阳南-阿房宫立交",2,12428,"34.251209","108.675668",1084.02,1071.592,"34.252025","108.806220","G003061","2025-12-19",0,1,0,"G0030610030020",,30402,9900010,"G003061003000120",3,4,"西宝咸阳环线",1,3,3,1,"G003061003000120010","0","2700BE","0",190,2,"1995-12-20",1,
"G003061003000210","咸阳南-沣渭立交",2,1380,"34.251265","108.676184",1084.02,1085.4,"34.246264","108.647816","G003061","2025-12-19",0,1,0,"G0030610030020",,30402,9900616,"G003061003000210",3,4,"西宝咸阳环线",1,3,3,1,"G003061003000210010","0","2700BF","0",191,1,"1995-12-20",1,
"G003061003000220","沣渭立交-咸阳南",2,1380,"34.245908","108.647906",1085.4,1084.02,"34.251209","108.675668","G003061","2025-12-19",0,1,0,,"G0030610030020",9900616,30402,"G003061003000220",3,4,"西宝咸阳环线",1,3,3,1,"G003061003000220010","0","2700C0","0",192,2,"1995-12-20",1,
"G003061003000310","沣渭枢纽-西吴枢纽",2,10333,"34.246264","108.647816",1085.4,1095.777,"34.280871","108.548554","G003061","2025-12-19",0,1,0,,,9900616,9900011,"G003061003000310",3,4,"西宝咸阳环线",1,3,3,1,"G003061003000310010","0","2700C1","0",193,1,"1995-12-20",1,
"G003061003000320","西吴枢纽-沣渭枢纽",2,10333,"34.280595","108.548045",1095.77,1085.4,"34.245908","108.647906","G003061","2025-12-19",0,1,0,,,9900011,9900616,"G003061003000320",3,4,"西宝咸阳环线",1,3,3,1,"G003061003000320010","0","2700C2","0",194,2,"1995-12-20",1,
"G003061003000410","三桥-帽儿刘立交",2,1354,"34.298827","108.803253",0,1.354,"34.299200","108.802820","G003061","2025-12-19",0,1,0,"G0030610030030",,30101,9990005,"G003061003000410",3,3,"西宝咸阳段",1,1,1,1,"G003061003000410010","0","2700C3","2",195,1,"1995-12-20",2,
"G003061003000420","帽儿刘立交-三桥",2,1354,"34.298735","108.801339",1.354,0,"34.299149","108.803642","G003061","2025-12-19",0,1,0,,"G0030610030030",9990005,30101,"G003061003000420",3,3,"西宝咸阳段",1,1,1,1,"G003061003000420010","0","2700C4","2",196,2,"1995-12-20",2,
"G003061003000510","帽儿刘立交-咸阳",2,8662,"34.299200","108.802820",1.354,10.016,"34.311049","108.711112","G003061","2025-12-19",0,1,0,,"G0030610030040",9990005,30102,"G003061003000510",3,3,"西宝咸阳段",1,1,1,1,"G003061003000510010","0","2700C5","0",197,1,"1995-12-20",1,
"G003061003000520","咸阳-帽儿刘立交",2,8662,"34.310480","108.712302",10.016,1.354,"34.298735","108.801339","G003061","2025-12-19",0,1,0,"G0030610030040",,30102,9990005,"G003061003000520",3,3,"西宝咸阳段",1,1,1,1,"G003061003000520010","0","2700C6","0",198,2,"1995-12-20",1,
"G003061003000610","咸阳-咸阳西",2,6060,"34.311049","108.711112",10.016,16.076,"34.296187","108.655581","G003061","2025-12-19",0,1,0,"G0030610030040","G0030610030050",30102,30103,"G003061003000610",3,1,"西宝高速东段（咸阳-西吴立交）",1,1,1,1,"G003061003000610010","0","2700C7","0",199,1,"1995-12-20",1,
"G003061003000620","咸阳西-咸阳",2,6060,"34.296635","108.655433",16.076,10.016,"34.310480","108.712302","G003061","2025-12-19",0,1,0,"G0030610030050","G0030610030040",30103,30102,"G003061003000620",3,1,"西宝高速东段（咸阳-西吴立交）",1,1,1,1,"G003061003000620010","0","2700C8","0",200,2,"1995-12-20",1,
"G003061003000710","咸阳西-西吴立交",2,11080,"34.296187","108.655581",16.076,27.156,"34.277573","108.529391","G003061","2025-12-19",0,1,0,"G0030610030050",,30103,9900011,"G003061003000710",3,1,"西宝高速东段（咸阳-西吴立交）",1,1,1,1,"G003061003000710010","0","2700C9","0",201,1,"1995-12-20",1,
"G003061003000720","西吴立交-咸阳西",2,11080,"34.279846","108.544638",1095.777,16.076,"34.296635","108.655433","G003061","2025-12-19",0,1,0,,"G0030610030050",9900011,30103,"G003061003000720",3,1,"西宝高速东段（咸阳-西吴立交）",1,1,1,1,"G003061003000720010","0","2700CA","0",202,2,"1995-12-20",1,
"G003061003000810","西吴立交-兴平",2,3639,"34.280885","108.548372",1095.777,1099.416,"34.275694","108.510247","G003061","2025-12-19",0,1,0,,"G0030610030060",9900011,30104,"G003061003000810",3,2,"西宝改扩建",1,3,3,1,"G003061003000810010","0","2700CB","0",203,1,"1995-12-20",1,
"G003061003000820","兴平-西吴立交",2,3639,"34.275690","108.510029",1099.416,1095.777,"34.279846","108.544638","G003061","2025-12-19",0,1,0,"G0030610030060",,30104,9900011,"G003061003000820",3,2,"西宝改扩建",1,3,3,1,"G003061003000820010","0","2700CC","0",204,2,"1995-12-20",1,
"G003061003000910","兴平-武功",2,27474,"34.275694","108.510247",1099.416,1126.89,"34.249145","108.220328","G003061","2025-12-19",0,1,0,"G0030610030060","G0030610030070",30104,30201,"G003061003000910",3,2,"西宝改扩建",1,3,3,1,"G003061003000910010","0","2700CD","0",205,1,"1995-12-20",1,
"G003061003000920","武功-兴平",2,27474,"34.248029","108.219805",1126.89,1099.416,"34.275809","108.509841","G003061","2025-12-19",0,1,0,"G0030610030070","G0030610030060",30201,30104,"G003061003000920",3,2,"西宝改扩建",1,3,3,1,"G003061003000920010","0","2700CE","0",206,2,"1995-12-20",1,
"G003061003001010","武功-杨凌",2,10260,"34.249145","108.220328",1126.89,1137.15,"34.255148","108.110162","G003061","2025-12-19",0,1,0,"G0030610030070","G0030610030080",30201,30202,"G003061003001010",3,2,"西宝改扩建",1,3,3,1,"G003061003001010010","0","2700CF","0",207,1,"1995-12-20",1,
"G003061003001020","杨凌-武功",2,10260,"34.254994","108.109769",1137.15,1126.89,"34.248029","108.219805","G003061","2025-12-19",0,1,0,"G0030610030080","G0030610030070",30202,30201,"G003061003001020",3,2,"西宝改扩建",1,3,3,1,"G003061003001020010","0","2700D0","0",208,2,"1995-12-20",1,
"G003061003001110","杨凌-杨凌西",2,7702,"34.255091","108.109777",1137.15,1144.852,"34.266978","108.028232","G003061","2025-12-19",0,1,0,"G0030610030080","G0030610030130",30202,30207,"G003061003001110",3,2,"西宝改扩建",1,3,3,1,"G003061003001110010","0","2700D1","0",209,1,"1995-12-20",1,
"G003061003001120","杨凌西-杨凌",2,7702,"34.266734","108.028111",1144.852,1137.15,"34.254994","108.109769","G003061","2025-12-19",0,1,0,"G0030610030130","G0030610030080",30207,30202,"G003061003001120",3,2,"西宝改扩建",1,3,3,1,"G003061003001120010","0","2700D2","0",210,2,"1995-12-20",1,
"G003061003001210","杨凌西-绛帐",2,6928,"34.266978","108.028232",1144.852,1151.78,"34.264175","107.949529","G003061","2025-12-19",0,1,0,"G0030610030130","G0030610030090",30207,30203,"G003061003001210",3,2,"西宝改扩建",1,3,3,1,"G003061003001210010","0","2700D3","0",211,1,"1995-12-20",1,
"G003061003001220","绛帐-杨凌西",2,6928,"34.264001","107.950612",1151.78,1144.852,"34.266734","108.028111","G003061","2025-12-19",0,1,0,"G0030610030090","G0030610030130",30203,30207,"G003061003001220",3,2,"西宝改扩建",1,3,3,1,"G003061003001220010","0","2700D4","0",212,2,"1995-12-20",1,
"G003061003001310","绛帐-兰家互通",2,2730,"34.264175","107.949529",1151.78,1154.51,"34.266817","107.923167","G003061","2025-12-19",0,1,0,"G0030610030090",,30203,9990006,"G003061003001310",3,2,"西宝改扩建",1,3,3,1,"G003061003001310010","0","2700D5","0",213,1,"1995-12-20",1,
"G003061003001320","兰家互通-绛帐",2,2730,"34.264790","107.923380",1154.51,1151.78,"34.264001","107.950612","G003061","2025-12-19",0,1,0,,"G0030610030090",9990006,30203,"G003061003001320",3,2,"西宝改扩建",1,3,3,1,"G003061003001320010","0","2700D6","0",214,2,"1995-12-20",1,
"G003061003001410","法门寺-兰家互通",2,8260,"34.318568","107.919992",18,0,"34.266814","107.922848","G003061","2029-03-31",0,1,0,"G0030610030100",,30204,9990006,"G003061003001410",3,8,"西宝高速东段（法门寺-太白山）",1,1,1,1,"G003061003001410010","0","2700D7","2",215,1,"1999-04-01",2,
"G003061003001420","兰家互通-法门寺",2,8260,"34.317963","107.920735",0,18,"34.318568","107.919992","G003061","2029-03-31",0,1,0,,"G0030610030100",9990006,30204,"G003061003001420",3,8,"西宝高速东段（法门寺-太白山）",1,1,1,1,"G003061003001420010","0","2700D8","2",216,2,"1999-04-01",2,
"G003061003001510","兰家互通-太白山",2,0,"34.266814","107.922848",0,16,"34.262027","107.921410","G003061","2029-03-31",0,1,0,,"G0030610030110",9990006,30205,"G003061003001510",3,8,"西宝高速东段（法门寺-太白山）",1,1,1,1,"G003061003001510010","0","2700D9","2",217,1,"1999-04-01",2,
"G003061003001520","太白山-兰家互通",2,0,"34.260723","107.921578",16,0,"34.317963","107.920735","G003061","2029-03-31",0,1,0,"G0030610030110",,30205,9990006,"G003061003001520",3,8,"西宝高速东段（法门寺-太白山）",1,1,1,1,"G003061003001520010","0","2700DA","2",218,2,"1999-04-01",2,
"G003061003001610","兰家互通-常兴",2,7410,"34.266817","107.923167",1154.51,1161.92,"34.265348","107.841326","G003061","2025-12-19",0,1,0,,"G0030610030120",9990006,30206,"G003061003001610",3,2,"西宝改扩建",1,3,3,1,"G003061003001610010","0","2700DB","0",219,1,"1995-12-20",1,
"G003061003001620","常兴-兰家互通",2,7410,"34.264755","107.842520",1161.92,1154.51,"34.266773","107.920073","G003061","2025-12-19",0,1,0,"G0030610030120",,30206,9990006,"G003061003001620",3,2,"西宝改扩建",1,3,3,1,"G003061003001620010","0","2700DC","0",220,2,"1995-12-20",1,
"G003061003001710","常兴-眉县",2,11710,"34.265348","107.841326",1161.92,1173.63,"34.303018","107.720788","G003061","2025-12-19",0,1,0,"G0030610030120","G0030610030140",30206,30301,"G003061003001710",3,2,"西宝改扩建",1,3,3,1,"G003061003001710010","0","2700DD","0",221,1,"1995-12-20",1,
"G003061003001720","眉县-常兴",2,11710,"34.303018","107.720788",1173.63,1161.92,"34.264755","107.842520","G003061","2025-12-19",0,1,0,"G0030610030140","G0030610030120",30301,30206,"G003061003001720",3,2,"西宝改扩建",1,3,3,1,"G003061003001720010","0","2700DE","0",222,2,"1995-12-20",1,
"G003061003001810","阿房宫站-阿房宫",2,0,"34.253502","108.786375",1071.592,1084.02,"34.250429","108.669090","G003061","2025-12-19",0,1,0,,"G0030610030020",9900010,30402,"G003061003001810",3,4,"西宝咸阳环线",1,3,3,1,"G003061003001810010","0",,"6",1168,1,"1995-12-20",2,
"G003061003001820","阿房宫-阿房宫站",2,0,"34.249179","108.658334",1084.02,1071.592,"34.253501","108.786374","G003061","2025-12-19",0,1,0,"G0030610030020",,30402,9900010,"G003061003001820",3,4,"西宝咸阳环线",1,3,3,1,"G003061003001820010","0",,"6",1169,2,"1995-12-20",2,
"G003061003001910","咸阳南站-咸阳南",2,0,"34.249179","108.658333",1084.02,1085.4,"34.247948","108.647579","G003061","2025-12-19",0,1,0,"G0030610030020",,30402,9900616,"G003061003001910",3,4,"西宝咸阳环线",1,3,3,1,"G003061003001910010","0",,"6",1170,1,"1995-12-20",2,
"G003061003001920","咸阳南-咸阳南站",2,0,"34.247948","108.647578",1085.4,1084.02,"34.249179","108.658333","G003061","2025-12-19",0,1,0,,"G0030610030020",9900616,30402,"G003061003001920",3,4,"西宝咸阳环线",1,3,3,1,"G003061003001920010","0",,"6",1171,2,"1995-12-20",2,
"G003061003002010","咸阳站-咸阳",2,0,"34.299624","108.811480",5.388,10.016,"34.309697","108.707507","G003061","2025-12-19",0,1,0,,"G0030610030040",9990005,30102,"G003061003002010",3,3,"西宝咸阳段",1,1,1,1,"G003061003002010010","0",,"6",1172,1,"1995-12-20",2,
"G003061003002020","咸阳-咸阳站",2,0,"34.309697","108.707507",10.016,5.388,"34.299624","108.811480","G003061","2025-12-19",0,1,0,"G0030610030040",,30102,9990005,"G003061003002020",3,3,"西宝咸阳段",1,1,1,1,"G003061003002020010","0",,"6",1173,2,"1995-12-20",2,
